Time,location_bearingAccuracy,location_speedAccuracy,location_verticalAccuracy,location_horizontalAccuracy,location_speed,location_bearing,location_altitude,location_longitude,location_latitude,pedometer_steps,totalAcceleration_z,totalAcceleration_y,totalAcceleration_x,gravity_z,gravity_y,gravity_x,barometer_relativeAltitude,barometer_pressure,gyroscope_z,gyroscope_y,gyroscope_x,orientation_qz,orientation_qy,orientation_qx,orientation_qw,orientation_roll,orientation_pitch,orientation_yaw,light_lux,accelerometer_z,accelerometer_y,accelerometer_x,wiFi_level,wiFi_frequency,magnetometer_z,magnetometer_y,magnetometer_x,network_type,network_isConnected,network_isInternetReachable,network_isWifiEnabled,network_isConnectionExpensive,network_strength,network_frequency,label
0,45.0,1.5,1.402887344,11.47399998,0.294539064,89.38438416,106.0,127.3654411,36.3742575,0.0,2.129348278,9.613492203,0.299404065,2.131376302,9.568534946,0.258597676,-0.776300812,1008.028125,0.009177029,-0.015340659,-8.31e-05,-0.399943399,-0.335077652,0.528247955,0.669858199,-0.120778374,-1.349996275,0.979767787,120.4,-0.055420363,0.046154404,0.051101769,-62.41071429,3906.125,-24.33882298,-22.51411707,-37.4647053,1,1,1,1,0,99.0,5500.0,1
1,45.0,1.5,1.402887344,11.47399998,0.294539064,89.38438416,106.0,127.3654411,36.3742575,0.0,4.835836548,7.64408145,0.691466562,4.744804287,7.974091649,0.524246144,-0.08059082,1008.031689,-0.112171352,-0.094539338,-0.912410318,-0.446081644,-0.274123652,0.401753452,0.732441199,-0.125137977,-1.027979058,1.01046333,384.8333333,0.105757058,-0.327137065,0.170572397,-62.41071429,3906.125,-30.14470504,-14.23764673,-40.13646967,1,1,1,1,0,99.0,5500.0,1
2,45.0,1.5,1.402887344,11.47399998,0.294539064,89.38438416,106.0,127.3654411,36.3742575,0.0,8.685590944,1.191869994,2.589527892,8.939151335,1.990018153,2.741283175,-0.274269104,1008.054858,-0.129275579,-0.007765933,-0.399100259,-0.640024701,-0.171358498,-0.016638301,0.737588152,-0.292677042,-0.206719547,1.410397106,751.0,-0.313177872,-0.794676459,-0.1691138,-62.41071429,3906.125,-25.90941126,-3.451764644,-48.42705783,1,1,1,1,0,99.0,5500.0,1
3,45.0,1.5,1.402887344,11.47399998,0.294539064,89.38438416,106.0,127.3654411,36.3742575,0.0,9.846934009,-0.125340289,-0.536676694,9.795585442,0.142109952,-0.428663254,-0.187602615,1008.044507,-0.009332189,0.16403992,0.044754434,-0.710098502,0.010316,0.0207267,0.703315848,0.043732713,-0.014492643,1.580701673,369.0,0.051348543,-0.267450238,-0.108013445,-62.41071429,3906.125,-40.00874901,-2.954999954,-43.77374959,1,1,1,1,0,99.0,5500.0,1
4,45.0,1.5,1.402887344,11.47399998,0.294539064,89.38438416,106.0,127.3654411,36.3742575,0.0,9.730811596,0.009337672,-0.439109997,9.79722352,0.018360459,-0.429355103,-0.276647186,1008.055151,-0.006583295,-6.9e-05,0.003887546,-0.730380696,0.01426735,0.01663585,0.682685301,0.043796138,-0.001872247,1.63831684,369.0,-0.069165325,-0.008663647,-0.008916898,-62.41071429,3906.125,-39.97058711,-3.035294042,-43.72588124,1,1,1,1,0,99.0,5500.0,1
5,45.0,1.5,1.402887344,11.47399998,0.294539064,89.38438416,106.0,127.3654411,36.3742575,0.0,9.798928785,0.028611584,-0.441504277,9.797009373,0.024320254,-0.434050481,-0.250224304,1008.052002,-0.006552752,-0.003489873,0.002207667,-0.730172101,0.0142145,0.01701415,0.6829014,0.044275432,-0.002479978,1.637729675,369.0,0.001919413,0.00429133,-0.007453796,-62.41071429,3906.125,-39.74823447,-3.074117562,-42.08823417,1,1,1,1,0,99.0,5500.0,1
6,45.0,1.5,1.402887344,11.47399998,0.294539064,89.38438416,106.0,127.3654411,36.3742575,0.0,9.819519615,0.021787901,-0.440187424,9.796990681,0.024308767,-0.434468152,-0.208476639,1008.046997,-0.006766555,-0.003948022,0.001627345,-0.73172735,0.0141906,0.01706185,0.6812336,0.044318065,-0.002478807,1.64229179,369.0,0.02037406,-0.002401152,-0.006078413,-62.41071429,3906.125,-39.56999922,-3.09374994,-41.91374946,1,1,1,1,0,99.0,5500.0,1
7,45.0,1.5,1.402887344,11.47399998,0.294539064,89.38438416,106.0,127.3654411,36.3742575,0.0,9.836638689,0.015921928,-0.436955155,9.797113895,0.02063613,-0.431871125,-0.265549469,1008.053809,-0.006613838,-0.003734219,0.001627345,-0.731203002,0.01425035,0.0168261,0.681797254,0.044052945,-0.002104301,1.640743101,369.0,0.039045954,-0.005193058,-0.005443171,-62.41071429,3906.125,-39.79411653,-2.982352888,-42.31411676,1,1,1,1,0,99.0,5500.0,1
8,45.0,1.5,1.337059975,11.51200008,0.12576054,342.5882263,106.0,127.3654368,36.3742666,0.0,9.842384958,0.015562786,-0.43743401,9.797199965,0.018812355,-0.430005911,-0.349573898,1008.06394,-0.006644381,-0.003886935,0.002024407,-0.731536397,0.01424535,0.0167001,0.681444046,0.043862543,-0.001918328,1.641710234,369.0,0.045184994,-0.003249569,-0.007428099,-62.41071429,3906.125,-39.81176354,-3.215293996,-42.87176379,1,1,1,1,0,99.0,5500.0,1
9,45.0,1.5,1.337059975,11.51200008,0.12576054,342.5882263,106.0,127.3654368,36.3742666,0.0,9.830413532,0.015203645,-0.435159449,9.797262526,0.016449845,-0.428668739,-0.386301041,1008.068311,-0.006858184,-0.003520416,0.001810605,-0.726681846,0.0144042,0.0164661,0.686618295,0.043726041,-0.001677418,1.627511609,369.0,0.033151007,-0.0012462,-0.00649071,-62.41071429,3906.125,-39.93749881,-2.951249942,-43.58624887,1,1,1,1,0,99.0,5500.0,1
10,45.0,1.5,1.337059975,11.51200008,0.12576054,342.5882263,106.0,127.3654368,36.3742666,0.0,9.811139536,0.016400783,-0.437912862,9.797100401,0.017809344,-0.432307222,-0.367541122,1008.066016,-0.005119234,-0.003059335,0.001551995,-0.724800697,0.01452685,0.0166091,0.688604051,0.044097432,-0.001816049,1.622042733,369.0,0.013799715,-0.002485985,-0.006204209,-62.41071429,3906.125,-39.69176393,-3.15529404,-43.37999927,1,1,1,1,0,99.0,5500.0,1
11,45.0,1.5,1.384035707,11.49300003,1.509593606,245.7286072,106.0,127.3653796,36.3742456,0.0,9.805034113,0.014964218,-0.437912865,9.796980619,0.016078905,-0.43508226,-0.319451523,1008.060303,-0.002483167,-0.001487457,0.000753,-0.724769551,0.01468905,0.01665035,0.68863245,0.044380671,-0.001639593,1.621955049,369.0,0.008053493,-0.001114687,-0.002830605,-62.41071429,3906.125,-40.00588114,-3.052941098,-43.63411735,1,1,1,1,0,99.0,5500.0,1
12,45.0,1.5,1.384035707,11.49300003,1.509593606,245.7286072,106.0,127.3653796,36.3742456,0.0,9.8003654,0.014365649,-0.437912865,9.79694376,0.017424662,-0.435854991,-0.279817581,1008.055542,-0.002574797,-0.001365284,0.000784,-0.724723801,0.01466755,0.01672525,0.68867915,0.044459556,-0.001776822,1.62182731,369.0,0.00342164,-0.003059013,-0.002057874,-62.41071429,3906.125,-40.00499892,-3.056249931,-43.30124927,1,1,1,1,0,99.0,5500.0,1
13,45.0,1.5,1.384035707,11.49300003,1.509593606,245.7286072,106.0,127.3653796,36.3742456,0.0,9.797851467,0.013527653,-0.437793152,9.796985626,0.014482057,-0.435025021,-0.247581482,1008.05166,-0.002483167,-0.001395827,0.000814,-0.724812153,0.01474505,0.01659305,0.6885878,0.044374817,-0.001476759,1.622074914,369.0,0.000866,-0.000954,-0.002768131,-62.41071429,3906.125,-40.08705767,-3.10588228,-43.6941167,1,1,1,1,0,99.0,5500.0,1
14,45.0,1.5,1.384035707,11.49300003,1.509593606,245.7286072,106.0,127.3653796,36.3742456,0.0,9.798809147,0.011731947,-0.440905705,9.796841335,0.015494315,-0.43822597,-0.314432144,1008.059717,-0.001745364,-0.001038654,0.000711,-0.72476685,0.01482115,0.0167461,0.688630095,0.044701554,-0.001579981,1.621953642,369.0,0.001967812,-0.003762368,-0.002679735,-62.41071429,3906.125,-39.99176362,-3.197646983,-43.49646983,1,1,1,1,0,99.0,5500.0,1
15,45.0,1.5,1.384035707,11.49300003,1.509593606,245.7286072,106.0,127.3653796,36.3742456,0.0,9.797492313,0.013647367,-0.440905707,9.796817732,0.016340335,-0.438724418,-0.350630188,1008.064038,-0.001001208,-0.000419,0.000338,-0.724731097,0.01480825,0.0167935,0.688666856,0.044752439,-0.001666251,1.621853018,369.0,0.001273155,-0.002573255,-0.002301003,-62.41071429,3906.125,-39.84374905,-3.097499892,-43.37249923,1,1,1,1,0,99.0,5500.0,1
16,45.0,1.5,1.321467996,11.48499966,0.854443192,64.59432983,106.0,127.3654312,36.3742652,0.0,9.798569775,0.015323359,-0.435518588,9.79683218,0.017007563,-0.438376555,-0.353272629,1008.064307,-0.000879,-0.000327,0.000307,-0.724707097,0.01477195,0.01680355,0.688692597,0.044716936,-0.00173429,1.621784043,369.0,0.002216434,-0.001444777,0.002977681,-62.41071429,3906.125,-40.02352816,-3.176470504,-43.77882318,1,1,1,1,0,99.0,5500.0,1
17,45.0,1.5,1.321467996,11.48499966,0.854443192,64.59432983,106.0,127.3654312,36.3742652,0.0,9.79773159,0.018196489,-0.442581697,9.796801949,0.01545609,-0.43911133,-0.368070221,1008.066113,-0.000848,-0.000511,0.000399,-0.724759057,0.01485385,0.01677735,0.688636997,0.044791925,-0.001576083,1.621933103,369.0,0.00093,0.002740398,-0.003470367,-62.41071429,3906.125,-39.93882325,-3.07411759,-43.71176327,1,1,1,1,0,99.0,5500.0,1
18,45.0,1.5,1.321467996,11.48499966,0.854443192,64.59432983,106.0,127.3654312,36.3742652,0.0,9.801442814,0.016281069,-0.44102542,9.79680357,0.016718549,-0.439024682,-0.418272781,1008.072095,-0.000882,-0.000276,0.000237,-0.724717402,0.01480515,0.0168176,0.688680854,0.044783092,-0.001704818,1.621814889,369.0,0.00380125,0.000161,-0.001521882,-62.41071429,3906.125,-39.85874915,-3.01124993,-42.98249912,1,1,1,1,0,99.0,5500.0,1
19,45.0,1.5,1.321467996,11.48499966,0.854443192,64.59432983,106.0,127.3654312,36.3742652,0.0,9.802639914,0.01664021,-0.438511434,9.796835804,0.015600445,-0.438347901,-0.450773239,1008.075977,-0.000437,-0.000316,0.000137,-0.724730197,0.0148224,0.01675355,0.688668492,0.044714001,-0.001590803,1.621847731,369.0,0.00580411,0.001039765,-0.000164,-62.41071429,3906.125,-39.88941058,-3.112941097,-43.72235264,1,1,1,1,0,99.0,5500.0,1
20,45.0,1.5,1.321467996,11.48499966,0.854443192,64.59432983,106.0,127.3654312,36.3742652,0.0,9.806590509,0.016879638,-0.437194584,9.796830225,0.016246158,-0.438445963,-0.357236099,1008.064844,-0.000467,-0.000561,0.000107,-0.72470865,0.0148025,0.0167794,0.688691053,0.044724016,-0.001656648,1.621786934,369.0,0.009760284,0.000633,0.001251379,-62.41071429,3906.125,-39.9141168,-3.127058772,-43.52470488,1,1,1,1,0,99.0,5500.0,1
21,45.0,1.5,1.321467996,11.48499966,0.854443192,64.59432983,106.0,127.3654312,36.3742652,0.0,9.80838623,0.017119065,-0.439349429,9.796825647,0.017080562,-0.438522062,-0.29620018,1008.05752,-0.000223,-0.000255,-1.53e-05,-0.724676993,0.0147751,0.01681085,0.688724199,0.04473179,-0.001741733,1.621697164,369.0,0.011321163,0.000158,-0.001066795,-62.41071429,3906.125,-39.90374923,-3.183749914,-43.61999893,1,1,1,1,0,99.0,5500.0,1
22,45.0,1.5,1.348932028,11.47599983,0.469087213,243.0401154,106.0,127.3654043,36.3742543,0.0,9.811857843,0.016041641,-0.439588858,9.796815109,0.016478362,-0.438777532,-0.324208069,1008.060864,-0.000185,-0.000207,7.5e-05,-0.724705043,0.01480565,0.01679975,0.688694197,0.044757861,-0.001680326,1.621777833,369.0,0.015042734,-0.000437,-0.000811,-62.41071429,3906.125,-39.84352875,-3.141176392,-42.76235221,1,1,1,1,0,99.0,5500.0,1
23,45.0,1.5,1.348932028,11.47599983,0.469087213,243.0401154,106.0,127.3654043,36.3742543,0.0,9.810181856,0.010415095,-0.439828284,9.796806479,0.015562374,-0.439006579,-0.351688004,1008.064185,-0.000123,0.000108,6.72e-05,-0.7246889,0.01484795,0.0167757,0.688710749,0.044781234,-0.001586921,1.621729344,369.0,0.013375378,-0.005147279,-0.000822,-62.41071429,3906.125,-39.95294055,-3.049411704,-43.63411645,1,1,1,1,0,99.0,5500.0,1
24,45.0,1.5,1.348932028,11.47599983,0.469087213,243.0401154,106.0,127.3654043,36.3742543,0.0,9.806710196,0.0156825,-0.440546568,9.796780443,0.014665902,-0.439619741,-0.240976715,1008.050903,-6.17e-05,-0.000167,0.000281,-0.724714804,0.014902,0.01676745,0.688682696,0.044843816,-0.001495506,1.621803969,369.0,0.009929752,0.001016598,-0.000927,-62.41071429,3906.125,-39.97499919,-3.112499937,-43.49999905,1,1,1,1,0,99.0,5500.0,1
25,45.0,1.5,1.348932028,11.47599983,0.469087213,243.0401154,106.0,127.3654043,36.3742543,0.0,9.80347805,0.013886794,-0.441145134,9.796777201,0.015087265,-0.43967718,-0.228822327,1008.049438,-0.000184,0.00026,9.77e-05,-0.724704149,0.0148887,0.01678415,0.688693705,0.044849682,-0.001538474,1.621774149,369.0,0.007658529,-0.000722,-0.000391,-62.41071429,3906.125,-39.91058754,-3.003529338,-43.34117553,1,1,1,1,0,99.0,5500.0,1
26,45.0,1.5,1.348932028,11.47599983,0.469087213,243.0401154,106.0,127.3654043,36.3742543,0.0,9.808146763,0.014126222,-0.441384561,9.796718359,0.0157534,-0.440962583,-0.318130875,1008.060107,-5.96e-05,0.00026,3.41e-05,-0.724703252,0.01490925,0.0168551,0.688692552,0.044980893,-0.0016064,1.621776354,369.0,0.010111523,-0.000789,0.000177,-62.41071429,3906.125,-40.10823485,-3.028235211,-43.61646966,1,1,1,1,0,99.0,5500.0,1
27,45.0,1.5,1.324070454,11.48200035,0.383243024,61.54262161,106.0,127.3654254,36.3742635,0.0,9.799168348,0.017837347,-0.444257689,9.796789169,0.017960889,-0.439302403,-0.327907181,1008.061328,-1.95e-05,-0.000104,-7.57e-05,-0.724634796,0.014771,0.01686975,0.688767254,0.044811449,-0.001831502,1.621578652,369.0,0.002379179,-0.000124,-0.004955286,-62.41071429,3906.125,-39.90749931,-2.981249928,-43.60874891,1,1,1,1,0,99.0,5500.0,1
28,45.0,1.5,1.324070454,11.48200035,0.383243024,61.54262161,106.0,127.3654254,36.3742635,0.0,9.800365353,0.014964218,-0.442102845,9.796700382,0.016851212,-0.441320361,-0.33213501,1008.061792,0.000286,0.00014,0.00026,-0.724614945,0.0148834,0.016905,0.688784793,0.045017422,-0.001718346,1.62152341,369.0,0.00366497,-0.001886994,-0.000782,-62.41071429,3906.125,-39.81882252,-3.229411672,-43.5882344,1,1,1,1,0,99.0,5500.0,1
29,45.0,1.5,1.324070454,11.48200035,0.383243024,61.54262161,106.0,127.3654254,36.3742635,0.0,9.799527502,0.0156825,-0.442821124,9.796820545,0.016109979,-0.438670842,-0.398456573,1008.069727,-1.95e-05,0.000323,4.64e-05,-0.724609396,0.01481785,0.0167808,0.688795149,0.044746968,-0.001642761,1.621498913,369.0,0.002706957,-0.000427,-0.004150282,-62.41071429,3906.125,-39.95646959,-3.24352932,-43.54941088,1,1,1,1,0,99.0,5500.0,1
30,45.0,1.5,1.324070454,11.48200035,0.383243024,61.54262161,106.0,127.3654254,36.3742635,0.0,9.796654367,0.010534809,-0.439588855,9.796716309,0.016945924,-0.440963191,-0.404797363,1008.070508,4.15e-05,0.000109,4.64e-05,-0.724586448,0.01486805,0.0168945,0.688815242,0.044980965,-0.001728004,1.621440029,369.0,-6.19e-05,-0.006411115,0.001374336,-62.41071429,3906.125,-39.89624882,-3.221249923,-43.24874949,1,1,1,1,0,99.0,5500.0,1
31,45.0,1.5,1.324070454,11.48200035,0.383243024,61.54262161,106.0,127.3654254,36.3742635,0.0,9.806829834,0.01664021,-0.44126485,9.796767855,0.016992245,-0.439809875,-0.403740311,1008.070386,8.15e-05,0.000199,-9.05e-05,-0.724628046,0.0148248,0.01685435,0.688773498,0.044863241,-0.001732728,1.62155804,369.0,0.010061979,-0.000352,-0.001454975,-62.41071429,3906.125,-40.04470489,-3.052941112,-43.63764662,1,1,1,1,0,99.0,5500.0,1
32,45.0,1.5,1.350277662,11.47500038,0.846720695,244.1966095,106.0,127.3653796,36.3742456,0.0,9.806590509,0.015323359,-0.444975972,9.796794033,0.016643253,-0.439246206,-0.375204849,1008.066968,-0.000104,0.000258,-9.29e-05,-0.724619696,0.0148181,0.01682105,0.688783258,0.044805702,-0.00169714,1.621531564,369.0,0.009796476,-0.001319894,-0.005729766,-62.41071429,3906.125,-39.96705785,-3.314117572,-43.62352842,1,1,1,1,0,99.0,5500.0,1
33,45.0,1.5,1.350277662,11.47500038,0.846720695,244.1966095,106.0,127.3653796,36.3742456,0.0,9.80180192,0.015562786,-0.438272004,9.796745777,0.017277475,-0.440293433,-0.41721611,1008.072021,-0.000166,-7.76e-05,-3.18e-05,-0.724632001,0.01483115,0.01688235,0.688768503,0.044912603,-0.001761813,1.621571398,369.0,0.005056143,-0.001714688,0.002021429,-62.41071429,3906.125,-40.04249907,-3.086249918,-43.64624929,1,1,1,1,0,99.0,5500.0,1
34,45.0,1.5,1.350277662,11.47500038,0.846720695,244.1966095,106.0,127.3653796,36.3742456,0.0,9.799407673,0.017717634,-0.440666278,9.796765518,0.01866007,-0.439800176,-0.45182991,1008.076172,-0.000318,-4.7e-05,-1.22e-06,-0.724628398,0.0147628,0.0169126,0.688773003,0.044862264,-0.001902799,1.621563023,369.0,0.002642155,-0.000942,-0.000866,-62.41071429,3906.125,-39.9988226,-3.081176393,-43.67646969,1,1,1,1,0,99.0,5500.0,1
35,45.0,1.5,1.350277662,11.47500038,0.846720695,244.1966095,106.0,127.3653796,36.3742456,0.0,9.80204134,0.017119065,-0.440187421,9.796636438,0.016770145,-0.442742196,-0.474024963,1008.078833,-0.000104,8.37e-05,0.000179,-0.724653545,0.0149354,0.0169556,0.688741755,0.045162556,-0.00171008,1.6216389,369.0,0.005404902,0.000349,0.002554774,-62.41071429,3906.125,-39.65294019,-3.3317646,-43.10823441,1,1,1,1,0,99.0,5500.0,1
36,45.0,1.5,1.350277662,11.47500038,0.846720695,244.1966095,106.0,127.3653796,36.3742456,0.0,9.809822702,0.017119065,-0.439469139,9.796708965,0.015972251,-0.44116872,-0.469533157,1008.078247,-8.55e-06,-0.000102,2.93e-05,-0.724656302,0.01490955,0.0168694,0.688741595,0.045001935,-0.001628717,1.621641022,369.0,0.013113737,0.001146814,0.00169958,-62.41071429,3906.125,-39.92624927,-3.247499943,-43.56374884,1,1,1,1,0,99.0,5500.0,1
37,45.0,1.5,1.320985198,11.4989996,0.89131391,64.53739166,106.0,127.3654292,36.3742646,0.0,9.81101985,0.014006508,-0.440785991,9.796726704,0.015780711,-0.440773401,-0.47032547,1008.078345,-0.000192,-0.000163,2.93e-05,-0.724651903,0.01490285,0.01684795,0.688746753,0.044961584,-0.001609185,1.621626842,369.0,0.014293146,-0.001774203,-1.26e-05,-62.41071429,3906.125,-39.73058701,-3.391764655,-43.71882248,1,1,1,1,0,99.0,5500.0,1
38,45.0,1.5,1.320985198,11.4989996,0.89131391,64.53739166,106.0,127.3654292,36.3742646,0.0,9.804315901,0.018196489,-0.438870575,9.796794558,0.01640172,-0.439240839,-0.460284805,1008.077173,-0.000253,-0.000255,0.000151,-0.724672547,0.01482555,0.0168135,0.688727751,0.044805153,-0.001672511,1.621684408,369.0,0.007521343,0.001794769,0.00037,-62.41071429,3906.125,-39.77646974,-3.130588167,-43.78941009,1,1,1,1,0,99.0,5500.0,1
39,45.0,1.5,1.320985198,11.4989996,0.89131391,64.53739166,106.0,127.3654292,36.3742646,0.0,9.802280807,0.01280937,-0.442222558,9.79672327,0.017057133,-0.440796387,-0.409817886,1008.071069,-0.000234,-0.000254,-7.75e-05,-0.724642798,0.0148567,0.01689345,0.688756502,0.044963941,-0.001739344,1.621603477,369.0,0.005557537,-0.004247762,-0.001426171,-62.41071429,3906.125,-40.04249883,-3.26624991,-43.74374938,1,1,1,1,0,99.0,5500.0,1
40,45.0,1.5,1.320985198,11.4989996,0.89131391,64.53739166,106.0,127.3654292,36.3742646,0.0,9.80647068,0.014844504,-0.444257687,9.796722174,0.018354692,-0.440773927,-0.479045486,1008.079395,-0.000161,-0.000131,-2.02e-05,-0.724579501,0.0148095,0.01693685,0.688822851,0.044961657,-0.001871659,1.621422762,369.0,0.009748507,-0.003510188,-0.00348376,-62.41071429,3906.125,-39.46941084,-3.31764698,-41.94705851,1,1,1,1,0,99.0,5500.0,1
41,45.0,1.5,1.320985198,11.4989996,0.89131391,64.53739166,106.0,127.3654292,36.3742646,0.0,9.83173027,0.018196488,-0.439349428,9.796740627,0.016529181,-0.440428592,-0.351951599,1008.06416,0.000114,-3.97e-05,-5.07e-05,-0.724585292,0.0148647,0.01686005,0.688817444,0.044926394,-0.001685508,1.621434343,369.0,0.034989643,0.001667308,0.001079164,-62.41071429,3906.125,-39.57529337,-3.243529348,-42.36352853,1,1,1,1,0,99.0,5500.0,1
42,45.0,1.5,1.320985198,11.4989996,0.89131391,64.53739166,106.0,127.3654292,36.3742646,0.0,9.853757572,0.019034485,-0.439110002,9.796881723,0.016731933,-0.43727569,-0.435712433,1008.074194,0.000206,-3.97e-05,-5.07e-05,-0.724586597,0.0147464,0.01675055,0.688821208,0.044604565,-0.001706183,1.621430773,369.0,0.057115316,0.001584269,-0.002313167,-62.41071429,3906.125,-39.82499933,-3.262499899,-42.47999883,1,1,1,1,0,99.0,5500.0,1
43,45.0,1.5,1.320752621,11.50500011,0.233691677,73.44908905,106.0,127.3654424,36.3742675,0.0,9.847293139,0.015203645,-0.43683544,9.796968794,0.017817955,-0.435280935,-0.37573204,1008.067041,0.000102,-0.000248,0.000237,-0.724612248,0.01463555,0.01671545,0.688797587,0.044400964,-0.001816927,1.621502846,369.0,0.050324345,-0.002614309,-0.001554504,-62.41071429,3906.125,-39.87882278,-3.194117574,-43.1470577,1,1,1,1,0,99.0,5500.0,1
44,45.0,1.5,1.320752621,11.50500011,0.233691677,73.44908905,106.0,127.3654424,36.3742675,0.0,9.821554804,0.01472479,-0.440426852,9.796854973,0.01802972,-0.437826781,-0.338740921,1008.062622,-0.00036,0.000548,-0.000227,-0.724612901,0.01471715,0.0168171,0.68879275,0.044660827,-0.001838521,1.621511561,369.0,0.024699831,-0.00330493,-0.002600071,-62.41071429,3906.125,-39.83294027,-3.32823522,-42.97411661,1,1,1,1,0,99.0,5500.0,1
45,45.0,1.5,1.320752621,11.50500011,0.233691677,73.44908905,106.0,127.3654424,36.3742675,0.0,9.821195555,0.015203645,-0.438152289,9.796900225,0.018570824,-0.436786562,-0.375732422,1008.067065,-0.000329,2.87e-05,0.000261,-0.724606949,0.01466075,0.0167975,0.688800693,0.044554654,-0.001893698,1.621493,369.0,0.02429533,-0.003367179,-0.001365727,-62.41071429,3906.125,-39.956249,-3.404999927,-43.10999942,1,1,1,1,0,99.0,5500.0,1
46,45.0,1.5,1.320752621,11.50500011,0.233691677,73.44908905,106.0,127.3654424,36.3742675,0.0,9.81030159,0.022147042,-0.437793151,9.796883202,0.01918915,-0.437149023,-0.369655228,1008.066309,0.000129,0.000365,0.000292,-0.724595797,0.0146509,0.0168324,0.688811696,0.044591657,-0.00195675,1.621462977,369.0,0.013418388,0.002957892,-0.000644,-62.41071429,3906.125,-39.78705754,-3.310588135,-43.64470493,1,1,1,1,0,99.0,5500.0,1
47,45.0,1.5,1.335846186,11.49400043,0.228078991,242.9677887,106.0,127.3654319,36.3742633,0.0,9.805872154,0.015921928,-0.436476299,9.796831703,0.018615473,-0.438325436,-0.403740311,1008.07041,-2.38e-05,-0.000216,0.00017,-0.724564555,0.0147142,0.0168551,0.688842696,0.044711732,-0.001898251,1.621373838,369.0,0.009040451,-0.002693545,0.001849137,-62.41071429,3906.125,-39.94941061,-3.317646994,-43.7435287,1,1,1,1,0,99.0,5500.0,1
48,45.0,1.5,1.335846186,11.49400043,0.228078991,242.9677887,106.0,127.3654319,36.3742633,0.0,9.802400589,0.017717634,-0.440666278,9.796801805,0.016698348,-0.439067681,-0.387358856,1008.068384,-0.000119,3.08e-05,0.000145,-0.724594849,0.0148104,0.01681585,0.688809603,0.04478748,-0.001702759,1.621459097,369.0,0.005598783,0.001019285,-0.001598597,-62.41071429,3906.125,-39.80249906,-3.086249933,-43.73249865,1,1,1,1,0,99.0,5500.0,1
49,45.0,1.5,1.335846186,11.49400043,0.228078991,242.9677887,106.0,127.3654319,36.3742633,0.0,9.80108366,0.020710477,-0.438990286,9.79673357,0.018662576,-0.440504819,-0.40109787,1008.070044,-0.000125,-0.000205,-0.000294,-0.7246025,0.0147881,0.0169382,0.688799301,0.044934191,-0.001903054,1.621489555,369.0,0.00435009,0.002047901,0.001514533,-62.41071429,3906.125,-39.95294077,-3.296470488,-43.41882279,1,1,1,1,0,99.0,5500.0,1
50,45.0,1.5,1.335846186,11.49400043,0.228078991,242.9677887,106.0,127.3654319,36.3742633,0.0,9.802639961,0.016041641,-0.441025421,9.796718645,0.018943951,-0.440828216,-0.384187317,1008.068115,2.75e-05,-2.2e-05,1.16e-05,-0.72457656,0.0147897,0.0169595,0.688825908,0.044967205,-0.001931747,1.621415746,369.0,0.005921316,-0.00290231,-0.000197,-62.41071429,3906.125,-39.63176346,-3.314117558,-43.27058792,1,1,1,1,0,99.0,5500.0,1
51,45.0,1.5,1.335846186,11.49400043,0.228078991,242.9677887,106.0,127.3654319,36.3742633,0.0,9.811259222,0.022865325,-0.439708568,9.796818542,0.018481412,-0.438623188,-0.351687622,1008.06416,8.86e-05,8.55e-06,-0.000294,-0.724604049,0.01472865,0.01686225,0.688800696,0.044742123,-0.001884581,1.621488911,369.0,0.01444068,0.004383913,-0.00108538,-62.41071429,3906.125,-40.00499868,-3.183749899,-43.77749872,1,1,1,1,0,99.0,5500.0,1
52,45.0,1.5,1.336907625,11.49699974,0.105300128,31.95879745,106.0,127.3654359,36.3742678,0.0,9.801323032,0.017837347,-0.439110002,9.796776724,0.017675802,-0.439586265,-0.359086227,1008.065039,-0.000332,-4.05e-05,-4.29e-05,-0.724616796,0.01479195,0.01686985,0.68878575,0.044840422,-0.001802431,1.621526432,369.0,0.004546309,0.000162,0.000476,-62.41071429,3906.125,-39.88235227,-3.275294037,-43.64470493,1,1,1,1,0,99.0,5500.0,1
53,45.0,1.5,1.336907625,11.49699974,0.105300128,31.95879745,106.0,127.3654359,36.3742678,0.0,9.802520275,0.017717633,-0.441145134,9.796708536,0.017765195,-0.441103828,-0.311789703,1008.059399,-0.000159,-0.000188,-0.000176,-0.724619356,0.0148419,0.0169292,0.688780397,0.044995328,-0.001811547,1.621537876,369.0,0.005811739,-4.76e-05,-4.13e-05,-62.41071429,3906.125,-39.98117559,-3.268235221,-43.69411648,1,1,1,1,0,99.0,5500.0,1
54,45.0,1.5,1.336907625,11.49699974,0.105300128,31.95879745,106.0,127.3654359,36.3742678,0.0,9.793900919,0.022027328,-0.442581698,9.796762896,0.019312906,-0.43983006,-0.353273392,1008.064282,-3.67e-05,-0.00031,0.000221,-0.724600652,0.0147404,0.01693605,0.688802147,0.04486532,-0.00196937,1.621484071,369.0,-0.002861977,0.002714422,-0.002751638,-62.41071429,3906.125,-39.89624906,-3.318749905,-43.79249907,1,1,1,1,0,99.0,5500.0,1
55,45.0,1.5,1.336907625,11.49699974,0.105300128,31.95879745,106.0,127.3654359,36.3742678,0.0,9.8015625,0.021787901,-0.442701413,9.796682882,0.017456154,-0.441679232,-0.326586533,1008.061108,-0.000128,-0.000249,-2.32e-05,-0.724592495,0.0148742,0.01693905,0.688807797,0.04505406,-0.001780033,1.621460599,369.0,0.004879618,0.004331747,-0.001022181,-62.41071429,3906.125,-39.7447043,-3.328235205,-43.49646961,1,1,1,1,0,99.0,5500.0,1
56,45.0,1.5,1.336907625,11.49699974,0.105300128,31.95879745,106.0,127.3654359,36.3742678,0.0,9.803956795,0.019273912,-0.44389855,9.796689653,0.019381845,-0.441449393,-0.274797058,1008.05498,-6.72e-05,0.000118,-5.38e-05,-0.724580258,0.01479525,0.01699795,0.688820946,0.045030616,-0.001976399,1.621429098,369.0,0.007267141,-0.000108,-0.002449156,-62.41071429,3906.125,-39.95646959,-3.169411729,-43.7223522,1,1,1,1,0,99.0,5500.0,1
57,0.0,1.5,1.332094312,11.49400043,0.094974138,0.0,106.0,127.3654413,36.3742682,0.0,9.805034113,0.021069619,-0.441623987,9.796710634,0.017732477,-0.441053838,-0.282987976,1008.055859,0.000177,-0.000401,-0.000176,-0.724554405,0.01484295,0.0169248,0.688848901,0.044990224,-0.00180821,1.621349066,369.0,0.007724953,0.001900576,-0.00057,-62.41071429,3906.125,-39.8137486,-3.412499934,-43.80374932,1,1,1,1,0,99.0,5500.0,1
58,0.0,1.5,1.332094312,11.49400043,0.094974138,0.0,106.0,127.3654413,36.3742682,0.0,9.803358173,0.022745611,-0.440666275,9.796720505,0.019091036,-0.440782613,-0.291972351,1008.056982,-2.64e-05,-0.000119,0.000124,-0.724591196,0.0147823,0.0169633,0.688810343,0.04496255,-0.001946745,1.621458489,369.0,0.00843339,0.003774288,-0.001320226,-62.41071429,3906.125,-40.00588137,-3.236470517,-43.58470513,1,1,1,1,0,99.0,5500.0,1
59,0.0,1.5,1.332094312,11.49400043,0.094974138,0.0,106.0,127.3654413,36.3742682,0.0,9.804794788,0.021548473,-0.441863415,9.796695805,0.021374598,-0.441218255,-0.262379456,1008.053467,0.000115,-0.000197,0.000324,-0.724494448,0.0147156,0.0170576,0.68891125,0.045007042,-0.002179604,1.621184212,369.0,0.008098984,0.000174,-0.000645,-62.41071429,3906.125,-39.77647018,-3.250588193,-43.66588144,1,1,1,1,0,99.0,5500.0,1
60,0.0,1.5,1.332094312,11.49400043,0.094974138,0.0,106.0,127.3654413,36.3742682,0.0,9.798330212,0.020830191,-0.443659121,9.796703291,0.021312102,-0.44105939,-0.284045792,1008.056104,5.38e-05,0.000139,-1.16e-05,-0.724418649,0.0147142,0.0170479,0.688991359,0.044990824,-0.002173231,1.620963597,369.0,0.001626921,-0.000482,-0.002599731,-62.41071429,3906.125,-40.08374906,-3.30749993,-43.24499893,1,1,1,1,0,99.0,5500.0,1
61,0.0,1.5,1.332094312,11.49400043,0.094974138,0.0,106.0,127.3654413,36.3742682,0.0,9.804794788,0.020710477,-0.438990287,9.796719503,0.018992719,-0.440805422,-0.364370346,1008.065649,0.000115,1.71e-05,-0.000195,-0.724503297,0.0147889,0.0169588,0.688902855,0.044964878,-0.00193672,1.621203113,369.0,0.008793592,0.000999,0.002054562,-62.41071429,3906.125,-39.81529326,-3.04941169,-43.67999896,1,1,1,1,0,99.0,5500.0,1
62,45.0,1.5,1.335708857,11.48400021,0.18773374,236.2715912,106.0,127.3654318,36.3742632,0.0,9.806710148,0.016400782,-0.439349428,9.796732569,0.01901525,-0.440513098,-0.330285263,1008.061621,0.000145,-0.000197,-1.16e-05,-0.72449505,0.014778,0.0169486,0.688911998,0.044935041,-0.001939017,1.621178484,369.0,0.009977579,-0.002614467,0.00116367,-62.41071429,3906.125,-39.93529376,-3.116470533,-43.7435287,1,1,1,1,0,99.0,5500.0,1
63,45.0,1.5,1.335708857,11.48400021,0.18773374,236.2715912,106.0,127.3654318,36.3742632,0.0,9.809703064,0.020231622,-0.442940842,9.796611023,0.019045729,-0.443208277,-0.249695969,1008.051929,-3.79e-05,-0.000869,-0.000714,-0.724498159,0.0148715,0.01704945,0.688904253,0.045210152,-0.001942125,1.621194392,369.0,0.013092041,0.001185893,0.000267,-62.41071429,3906.125,-39.96374941,-3.26624994,-43.68374968,1,1,1,1,0,99.0,5500.0,1
64,45.0,1.5,1.335708857,11.48400021,0.18773374,236.2715912,106.0,127.3654318,36.3742632,0.0,9.802639866,0.021189332,-0.438631144,9.796704817,0.019577532,-0.441107963,-0.287744904,1008.056494,5.38e-05,0.0002,0.000202,-0.724475598,0.0147786,0.01698995,0.688931498,0.044995766,-0.001996354,1.62112481,369.0,0.005935049,0.0016118,0.002476819,-62.41071429,3906.125,-39.79058748,-3.095294041,-43.55999935,1,1,1,1,0,99.0,5500.0,1
65,45.0,1.5,1.335708857,11.48400021,0.18773374,236.2715912,106.0,127.3654318,36.3742632,0.0,9.81149869,0.020590764,-0.437793146,9.796664,0.019976484,-0.441993345,-0.286951828,1008.056396,0.000237,-0.000319,-0.00047,-0.724460346,0.01479535,0.0170364,0.688946101,0.045086145,-0.002037036,1.62108379,369.0,0.01483469,0.000614,0.004200199,-62.41071429,3906.125,-39.7341165,-3.317646966,-43.36941035,1,1,1,1,0,99.0,5500.0,1
66,45.0,1.5,1.335708857,11.48400021,0.18773374,236.2715912,106.0,127.3654318,36.3742632,0.0,9.802400589,0.016759924,-0.44162399,9.796701431,0.01467049,-0.44136494,-0.253659058,1008.052441,0.000268,0.0002,-0.000134,-0.724624553,0.01496535,0.01683025,0.688774651,0.045021958,-0.001495974,1.621546286,369.0,0.005699158,0.002089434,-0.000259,-62.41071429,3906.125,-39.79874921,-3.386249915,-43.72124887,1,1,1,1,0,99.0,5500.0,1
67,0.0,1.5,1.336011529,11.4989996,0.057174668,0.0,106.0,127.3654353,36.3742624,0.0,9.84908886,0.034477557,-0.442940842,9.796682501,0.021733544,-0.441495052,-0.271891022,1008.054614,0.00042,-0.00093,0.001210124,-0.727812099,0.014629,0.0171508,0.685392156,0.0450353,-0.002216207,1.63086046,369.0,0.052406359,0.012744012,-0.00144579,-62.41071429,3906.125,-39.83646976,-3.201176405,-43.50352904,1,1,1,1,0,99.0,5500.0,1
68,0.0,1.5,1.336011529,11.4989996,0.057174668,0.0,106.0,127.3654353,36.3742624,0.0,9.80539341,0.01759792,-0.440785992,9.796692944,0.020380752,-0.441332255,-0.34138298,1008.062964,0.000145,-4.4e-05,-1.16e-05,-0.732100856,0.0145663,0.01718975,0.680821344,0.045018668,-0.00207826,1.643396103,369.0,0.007862473,-0.001226554,-0.001010016,-62.41071429,3906.125,-39.69176393,-3.483529329,-43.94470529,1,1,1,1,0,99.0,5500.0,1
69,0.0,1.5,1.336011529,11.4989996,0.057174668,0.0,106.0,127.3654353,36.3742624,0.0,9.801682186,0.021189332,-0.441863416,9.796671438,0.021943696,-0.441734692,-0.323944473,1008.060815,0.000329,1.71e-05,-4.21e-05,-0.731331745,0.0145414,0.0172427,0.681646046,0.045059763,-0.002237636,1.641144246,369.0,0.005010748,-0.000754,-0.000129,-62.41071429,3906.125,-39.90374947,-3.269999921,-43.87124968,1,1,1,1,0,99.0,5500.0,1
70,0.0,1.5,1.336011529,11.4989996,0.057174668,0.0,106.0,127.3654353,36.3742624,0.0,9.80012598,0.018196489,-0.438990285,9.796695662,0.02023904,-0.441279154,-0.168842316,1008.042261,0.000298,-0.000197,0.000294,-0.731974345,0.01457295,0.01718015,0.680955946,0.045013246,-0.002063809,1.643026555,369.0,0.003430319,-0.002042551,0.002288869,-62.41071429,3906.125,-39.75176374,-3.374117543,-43.23176395,1,1,1,1,0,99.0,5500.0,1
71,0.0,1.5,1.336011529,11.4989996,0.057174668,0.0,106.0,127.3654353,36.3742624,0.0,9.805632877,0.022027329,-0.440067708,9.796683311,0.021431258,-0.441502129,-0.206098557,1008.046729,0.000512,-0.000288,-0.000164,-0.731995398,0.01453565,0.01723035,0.680933052,0.045036018,-0.002185382,1.643091381,369.0,0.008949566,0.000596,0.00143442,-62.41071429,3906.125,-39.79764579,-3.437646992,-43.66235172,1,1,1,1,0,99.0,5500.0,1
72,45.0,1.5,1.329353213,11.51900005,0.131818742,21.36100388,106.0,127.365438,36.3742682,0.0,9.80395689,0.02142876,-0.437434009,9.796746397,0.021003581,-0.44011565,-0.226179886,1008.049146,0.00021,2.51e-05,-0.000112,-0.731584746,0.0145138,0.0171549,0.681378147,0.044894489,-0.002141771,1.641878742,369.0,0.006971073,-0.000173,0.002561928,-62.41071429,3906.125,-39.71624899,-3.359999955,-43.63499904,1,1,1,1,0,99.0,5500.0,1
73,45.0,1.5,1.329353213,11.51900005,0.131818742,21.36100388,106.0,127.365438,36.3742682,0.0,9.794858599,0.021189332,-0.441145135,9.796721029,0.019596037,-0.440744542,-0.139248657,1008.038721,0.000107,6.72e-06,-0.000124,-0.7319426,0.0145792,0.0171371,0.680993748,0.04495867,-0.001998241,1.642926395,369.0,-0.001862431,0.001593295,-0.000401,-62.41071429,3906.125,-39.82588128,-3.37058819,-43.70823467,1,1,1,1,0,99.0,5500.0,1
74,45.0,1.5,1.329353213,11.51900005,0.131818742,21.36100388,106.0,127.365438,36.3742682,0.0,9.796773958,0.025499027,-0.44102542,9.796648741,0.02088369,-0.442291613,-0.154309845,1008.040552,0.000107,-0.000268,-0.000246,-0.73190935,0.0145857,0.01723895,0.681026497,0.0451166,-0.002129545,1.642835861,369.0,0.000125,0.004615337,0.001266193,-62.41071429,3906.125,-39.76588171,-3.254117573,-43.62705792,1,1,1,1,0,99.0,5500.0,1
75,45.0,1.5,1.329353213,11.51900005,0.131818742,21.36100388,106.0,127.365438,36.3742682,0.0,9.799527311,0.021787901,-0.442701411,9.796670532,0.020506583,-0.441822937,-0.165142822,1008.041797,-1.53e-05,-5.44e-05,-0.000216,-0.731903449,0.01458365,0.0172082,0.681033948,0.045068755,-0.002091091,1.642816383,369.0,0.002856779,0.001281318,-0.000878,-62.41071429,3906.125,-39.81374931,-3.269999921,-43.27874923,1,1,1,1,0,99.0,5500.0,1
76,45.0,1.5,1.329353213,11.51900005,0.131818742,21.36100388,106.0,127.365438,36.3742682,0.0,9.797612,0.020590763,-0.441623987,9.796687174,0.0208188,-0.441435231,-0.21111908,1008.047314,0.00016,0.000199,-1.8e-05,-0.7319381,0.01455765,0.0172053,0.680997249,0.045029184,-0.002122928,1.642917907,369.0,0.000925,-0.000228,-0.000189,-62.41071429,3906.125,-39.50470509,-3.472941118,-43.60941045,1,1,1,1,0,99.0,5500.0,1
77,0.0,1.5,1.316931963,11.54500008,0.060781538,0.0,106.0,127.3654354,36.3742659,0.0,9.801682234,0.01855563,-0.442581697,9.796708345,0.02144599,-0.440942924,-0.168578339,1008.042212,-3.12e-05,2.57e-05,5.74e-05,-0.731917596,0.01451765,0.01720825,0.681020102,0.044978937,-0.002186884,1.642857939,369.0,0.005213308,-0.004207211,-0.00247677,-62.41071429,3906.125,-39.64588165,-3.328235191,-43.64117544,1,1,1,1,0,99.0,5500.0,1
78,0.0,1.5,1.316931963,11.54500008,0.060781538,0.0,106.0,127.3654354,36.3742659,0.0,9.797492313,0.014605076,-0.442701413,9.796726608,0.021172483,-0.440551099,-0.15246048,1008.040356,0.000122,0.000148,-3.42e-05,-0.731893855,0.01451485,0.0171836,0.681046206,0.044938939,-0.002158994,1.642786556,369.0,0.000766,-0.006567406,-0.002150314,-62.41071429,3906.125,-39.74249911,-3.367499918,-43.61624908,1,1,1,1,0,99.0,5500.0,1
79,0.0,1.5,1.316931963,11.54500008,0.060781538,0.0,106.0,127.3654354,36.3742659,0.0,9.797492218,0.018196489,-0.44449712,9.796681976,0.02076037,-0.441560905,-0.19737854,1008.045703,-3.12e-05,0.000178,-3.67e-06,-0.731902298,0.0145651,0.0172072,0.681035554,0.04504201,-0.00211697,1.642812926,369.0,0.00081,-0.002563882,-0.002936216,-62.41071429,3906.125,-39.68823399,-3.458823428,-43.60588141,1,1,1,1,0,99.0,5500.0,1
80,0.0,1.5,1.316931963,11.54500008,0.060781538,0.0,106.0,127.3654354,36.3742659,0.0,9.803477907,0.020949905,-0.443419693,9.79665122,0.021310535,-0.442217743,-0.182317734,1008.043872,4.43e-05,0.000123,-0.000122,-0.731936857,0.0145665,0.0172516,0.680997306,0.045109063,-0.002173072,1.642917448,369.0,0.006826687,-0.000361,-0.00120195,-63.21052632,4132.017544,-39.38117532,-3.388235218,-41.56588139,1,1,1,1,0,99.0,5500.0,1
81,0.0,1.5,1.316931963,11.54500008,0.060781538,0.0,106.0,127.3654354,36.3742659,0.0,9.833765507,0.018675344,-0.43707487,9.79678421,0.019572475,-0.439338553,-0.215346146,1008.047803,8.12e-05,-0.00028,-0.000116,-0.73199029,0.01453005,0.01708475,0.680944794,0.044815154,-0.001995838,1.64306283,369.0,0.036382723,-0.001136559,0.002622825,-63.21052632,4132.017544,-39.44624925,-3.341249928,-42.49874878,1,1,1,1,0,99.0,5500.0,1
82,0.0,1.5,1.316931963,11.54500008,0.060781538,0.0,106.0,127.3654354,36.3742659,0.0,9.842025757,0.019633053,-0.44162399,9.796903086,0.02054338,-0.436642602,-0.105427933,1008.034692,-4.09e-05,0.000239,-8.55e-05,-0.731982651,0.01440035,0.01701755,0.680957448,0.044539976,-0.002094843,1.643035799,369.0,0.045122671,-0.00091,-0.004981388,-63.21052632,4132.017544,-39.55764636,-3.335294078,-42.28941098,1,1,1,1,0,99.0,5500.0,1
83,45.0,1.5,1.299394965,11.47399998,0.757251203,248.3804932,106.0,127.3653899,36.3742514,0.0,9.839990664,0.020710477,-0.441145135,9.796911478,0.019513762,-0.436492544,-0.082440186,1008.031958,-1.04e-05,8.67e-05,0.00022,-0.731998047,0.0144332,0.0169765,0.680941248,0.044524651,-0.001989851,1.643078226,369.0,0.040445471,0.000957,-0.004532877,-63.21052632,4132.017544,-39.78352895,-3.162352856,-43.28823426,1,1,1,1,0,99.0,5500.0,1
84,45.0,1.5,1.299394965,11.47399998,0.757251203,248.3804932,106.0,127.3653899,36.3742514,0.0,9.822751856,0.017837348,-0.438391715,9.796890402,0.018499139,-0.437014364,-0.039370346,1008.026782,-0.000211,-0.00014,-0.000371,-0.732030508,0.0144884,0.01696145,0.680905548,0.044577906,-0.001886388,1.643172467,369.0,0.025861454,-0.000662,-0.001377352,-63.21052632,4132.017544,-39.83999944,-3.104999945,-43.53749895,1,1,1,1,0,99.0,5500.0,1
85,45.0,1.5,1.299394965,11.47399998,0.757251203,248.3804932,106.0,127.3653899,36.3742514,0.0,9.808505917,0.016520496,-0.440187424,9.79681263,0.019280885,-0.438720722,-0.121809769,1008.036621,-0.000368,1.34e-05,7.33e-06,-0.732059252,0.01451775,0.017053,0.680871692,0.044752086,-0.001966104,1.643263078,369.0,0.011693287,-0.002760389,-0.001466702,-63.21052632,4132.017544,-39.64235171,-3.141176364,-43.21411649,1,1,1,1,0,99.0,5500.0,1
86,45.0,1.5,1.299394965,11.47399998,0.757251203,248.3804932,106.0,127.3653899,36.3742514,0.0,9.807428551,0.022266756,-0.442821127,9.796773911,0.019087706,-0.43959039,-0.249695969,1008.05188,-0.000246,-0.000231,-2.32e-05,-0.732049903,0.0145554,0.0170786,0.680880249,0.044840855,-0.001946406,1.643237376,369.0,0.01065464,0.00317905,-0.003230737,-63.21052632,4132.017544,-39.97058734,-3.225882292,-43.6588229,1,1,1,1,0,99.0,5500.0,1
87,0.0,1.5,1.284577966,12.36800003,0.095246471,0.0,106.0,127.3653875,36.3742495,0.0,9.802520227,0.016400783,-0.439588857,9.796802235,0.018041982,-0.439002028,-0.164614868,1008.041797,-0.000246,-4.76e-05,-2.32e-05,-0.732078651,0.0145733,0.0170209,0.680850405,0.044780789,-0.001839771,1.643317866,369.0,0.005717993,-0.001641199,-0.000587,-63.21052632,4132.017544,-39.71624851,-3.299999923,-43.68374896,1,1,1,1,0,99.0,5500.0,1
88,0.0,1.5,1.284577966,12.36800003,0.095246471,0.0,106.0,127.3653875,36.3742495,0.0,9.801562595,0.018795058,-0.440067708,9.79674139,0.0183333,-0.440348941,-0.150082397,1008.040063,0.000147,-0.00024,6.09e-05,-0.7320824,0.0146091,0.01708145,0.680844051,0.044918277,-0.001869477,1.643333012,369.0,0.004821205,0.000462,0.000281,-63.21052632,4132.017544,-39.72705841,-3.208235222,-43.83529326,1,1,1,1,0,99.0,5500.0,1
89,0.0,1.5,1.284577966,12.36800003,0.095246471,0.0,106.0,127.3653875,36.3742495,0.0,9.792224836,0.020351336,-0.442461987,9.796760464,0.017585732,-0.439939825,-0.256565857,1008.052759,-0.000294,0.00013,7.94e-06,-0.732071203,0.0146231,0.01703995,0.680856955,0.044876514,-0.001793247,1.643297321,369.0,-0.004535627,0.002765605,-0.002522162,-63.21052632,4132.017544,-39.96705762,-3.247058756,-43.6588229,1,1,1,1,0,99.0,5500.0,1
90,0.0,1.5,1.284577966,12.36800003,0.095246471,0.0,106.0,127.3653875,36.3742495,0.0,9.795337343,0.016520496,-0.443898545,9.79666667,0.016359595,-0.44208003,-0.224858856,1008.048975,1.16e-05,6.84e-05,-2.26e-05,-0.732137245,0.01474155,0.0170788,0.680782297,0.045094962,-0.001668215,1.643493849,369.0,-0.001329327,0.000161,-0.001818515,-63.21052632,4132.017544,-39.59249926,-3.389999881,-43.1812489,1,1,1,1,0,99.0,5500.0,1
91,0.0,1.5,1.284577966,12.36800003,0.095246471,0.0,106.0,127.3653875,36.3742495,0.0,9.796055746,0.018435916,-0.443659119,9.796712255,0.019118745,-0.44096552,-0.24441185,1008.051318,-0.000111,-0.000176,3.85e-05,-0.732043853,0.01460215,0.01713095,0.680884501,0.044981221,-0.001949571,1.643223202,369.0,-0.000657,-0.000683,-0.002693599,-63.21052632,4132.017544,-39.69176371,-3.257646967,-43.55999935,1,1,1,1,0,99.0,5500.0,1
92,0.0,1.5,1.266798973,11.47399998,0.044651669,0.0,106.0,127.3653896,36.3742513,0.0,9.799168396,0.019273912,-0.440905705,9.796694326,0.019225099,-0.441356185,-0.159066772,1008.041138,4.21e-05,-0.000206,-8.37e-05,-0.732027802,0.01461215,0.0171489,0.680901244,0.045021099,-0.001960416,1.643177319,369.0,0.00247407,4.88e-05,0.00045,-63.21052632,4132.017544,-39.854117,-3.377646965,-43.76470543,1,1,1,1,0,99.0,5500.0,1
93,0.0,1.5,1.266798973,11.47399998,0.044651669,0.0,106.0,127.3653896,36.3742513,0.0,9.796055746,0.015921927,-0.44425769,9.796678305,0.019378595,-0.441705328,-0.184431839,1008.044141,0.000134,0.000188,-0.000301,-0.731995803,0.01461935,0.0171666,0.680934846,0.045056739,-0.001976068,1.643084645,369.0,-0.000623,-0.003456668,-0.002552362,-63.21052632,4132.017544,-39.80999923,-3.153749928,-43.80749917,1,1,1,1,0,99.0,5500.0,1
94,0.0,1.5,1.266798973,11.47399998,0.044651669,0.0,106.0,127.3653896,36.3742513,0.0,9.790548849,0.015921927,-0.4417437,9.796677065,0.017327916,-0.441816297,-0.117317963,1008.036084,-7.45e-05,-1.89e-05,-0.000123,-0.731992897,0.01469985,0.01709945,0.680937949,0.04506805,-0.001766957,1.643071479,369.0,-0.006128216,-0.001405989,7.26e-05,-63.21052632,4132.017544,-39.75529278,-3.356470515,-43.53529291,1,1,1,1,0,99.0,5500.0,1
95,0.0,1.5,1.266798973,11.47399998,0.044651669,0.0,106.0,127.3653896,36.3742513,0.0,9.794738817,0.020949905,-0.44329998,9.796657991,0.02014751,-0.442122339,-0.163821793,1008.041724,-4.4e-05,-4.95e-05,-0.000123,-0.732000601,0.014605,0.017209,0.680928949,0.045099313,-0.002054476,1.643101668,369.0,-0.001919174,0.000802,-0.001177642,-63.21052632,4132.017544,-39.77646996,-3.338823445,-43.3447048,1,1,1,1,0,99.0,5500.0,1
96,0.0,1.5,1.266798973,11.47399998,0.044651669,0.0,106.0,127.3653896,36.3742513,0.0,9.80132308,0.019992195,-0.441623987,9.7967062,0.018886855,-0.441103463,-0.090631104,1008.032935,-0.000105,0.000195,-6.17e-05,-0.732004103,0.0146166,0.0171272,0.680926946,0.044995301,-0.001925924,1.643106312,369.0,0.00461688,0.001105339,-0.000521,-63.21052632,4132.017544,-39.77624917,-3.359999925,-43.74749947,1,1,1,1,0,99.0,5500.0,1
97,0.0,1.5,1.262035251,13.3739996,0.053778172,0.0,106.0,127.3653903,36.3742487,0.0,9.799886513,0.018795057,-0.440187424,9.796695995,0.019875957,-0.441287109,-0.169106293,1008.04231,0.000323,0.000439,-0.000123,-0.732007849,0.01458595,0.0171685,0.680922651,0.045014055,-0.002026785,1.643120146,369.0,0.003190517,-0.001080899,0.001099685,-63.21052632,4132.017544,-39.57529315,-3.335294036,-43.35529327,1,1,1,1,0,99.0,5500.0,1
98,0.0,1.5,1.262035251,13.3739996,0.053778172,0.0,106.0,127.3653903,36.3742487,0.0,9.801921606,0.016759924,-0.440426849,9.796608973,0.019439435,-0.443237545,-0.144533539,1008.03938,0.000167,0.000222,-2.69e-05,-0.731961998,0.01467115,0.01722525,0.680968851,0.045213142,-0.001982272,1.642989409,369.0,0.003876066,-0.002679511,0.002690981,-63.21052632,4132.017544,-39.74823424,-3.303529305,-43.57411643,1,1,1,1,0,99.0,5500.0,1
99,0.0,1.5,1.262035251,13.3739996,0.053778172,0.0,106.0,127.3653903,36.3742487,0.0,9.796774006,0.019872481,-0.440905707,9.796620131,0.018943075,-0.443012349,-0.213497162,1008.047656,-3.85e-05,-0.000206,-0.000233,-0.731964397,0.0146818,0.01719965,0.680966341,0.045190151,-0.001931657,1.642994714,369.0,0.000154,0.000929,0.002106643,-63.21052632,4132.017544,-39.82874894,-3.131249905,-43.68374944,1,1,1,1,0,99.0,5500.0,1
100,0.0,1.5,1.262035251,13.3739996,0.053778172,0.0,106.0,127.3653903,36.3742487,0.0,9.798090744,0.019992195,-0.443180268,9.796634483,0.019452174,-0.442676638,-0.166464615,1008.041992,-0.000283,-0.000114,-0.000111,-0.731995299,0.01465035,0.01720545,0.680933797,0.045155887,-0.001983571,1.643085837,369.0,0.000738,0.000301,-0.000743,-63.21052632,4132.017544,-39.63882289,-3.26117639,-42.94941061,1,1,1,1,0,99.0,5500.0,1
101,0.0,1.5,1.262035251,13.3739996,0.053778172,0.0,106.0,127.3653903,36.3742487,0.0,9.801801872,0.021668187,-0.44138456,9.796702623,0.019342098,-0.441166724,-0.145854568,1008.039502,8.37e-05,9.96e-05,-0.000172,-0.73198415,0.0146023,0.01714495,0.680948299,0.045001761,-0.001972346,1.64304896,369.0,0.005099249,0.002326089,-0.000218,-63.21052632,4132.017544,-39.82588128,-3.243529348,-43.33058727,1,1,1,1,0,99.0,5500.0,1
102,0.0,1.5,1.254004836,13.32499981,0.058540251,0.0,106.0,127.3653917,36.3742463,0.0,9.80060482,0.023463893,-0.443180266,9.796592188,0.019133551,-0.443621568,-0.238599014,1008.05061,0.000114,7.94e-06,-4.95e-05,-0.731986097,0.0146953,0.0172295,0.680942252,0.045252339,-0.00195108,1.64306047,369.0,0.003054905,0.004090914,-0.000277,-63.21052632,4132.017544,-39.55874896,-3.059999913,-43.57499933,1,1,1,1,0,99.0,5500.0,1
103,0.0,1.5,1.254004836,13.32499981,0.058540251,0.0,106.0,127.3653917,36.3742463,0.0,9.797971106,0.016759924,-0.440546565,9.796608925,0.019666516,-0.443224894,-0.230935287,1008.049634,-0.00013,-8.37e-05,-4.95e-05,-0.731963205,0.0146622,0.0172327,0.68096725,0.045211853,-0.002005428,1.642993492,369.0,-0.000194,-0.002906592,0.001960048,-63.21052632,4132.017544,-39.94235185,-3.116470491,-43.66588166,1,1,1,1,0,99.0,5500.0,1
104,0.0,1.5,1.254004836,13.32499981,0.058540251,0.0,106.0,127.3653917,36.3742463,0.0,9.796175337,0.023104752,-0.443299982,9.796615744,0.019907385,-0.443069009,-0.175448227,1008.043091,8.37e-05,-5.31e-05,0.000134,-0.731984597,0.01464725,0.0172357,0.680944541,0.045195943,-0.00202999,1.643056524,369.0,-0.000321,0.003317081,-0.000949,-63.21052632,4132.017544,-39.76235221,-2.999999944,-43.39411657,1,1,1,1,0,99.0,5500.0,1
105,0.0,1.5,1.254004836,13.32499981,0.058540251,0.0,106.0,127.3653917,36.3742463,0.0,9.798330307,0.019393626,-0.444497116,9.796627283,0.019681212,-0.442822054,-0.040163422,1008.026929,0.00026,-1.65e-05,-0.000126,-0.73196559,0.0146476,0.0172182,0.680965543,0.045170733,-0.002006926,1.642999518,369.0,0.001703024,-0.000288,-0.001675062,-63.21052632,4132.017544,-39.72374916,-3.434999898,-42.98624897,1,1,1,1,0,99.0,5500.0,1
106,0.0,1.5,1.254004836,13.32499981,0.058540251,0.0,106.0,127.3653917,36.3742463,0.0,9.804794788,0.020111908,-0.444018261,9.796670151,0.021314041,-0.441800793,-0.055752945,1008.02876,1.89e-05,6.9e-05,0.000181,-0.731918547,0.01455235,0.01723575,0.681017593,0.045066503,-0.002173429,1.642862636,369.0,0.008124638,-0.002159843,-0.002097756,-63.21052632,4132.017544,-39.95646937,-3.204705785,-43.45764587,1,1,1,1,0,99.0,5500.0,1
107,0.0,1.5,1.246025205,11.47399998,0.023022868,0.0,106.0,127.3653928,36.374247,0.0,9.80060482,0.01855563,-0.440666279,9.796639776,0.021585399,-0.44245767,-0.064736938,1008.029834,0.000233,3.85e-05,-0.000125,-0.731884453,0.0145659,0.017269,0.681053051,0.045133556,-0.0022011,1.64276486,369.0,0.003965044,-0.00302977,0.001791391,-63.21052632,4132.017544,-39.70588146,-3.218823475,-43.56705744,1,1,1,1,0,99.0,5500.0,1
108,0.0,1.5,1.246025205,11.47399998,0.023022868,0.0,106.0,127.3653928,36.374247,0.0,9.797252846,0.02047105,-0.446292824,9.796667194,0.019089887,-0.441965799,-0.092216873,1008.033105,0.000263,0.000374,8.92e-05,-0.731951296,0.0146403,0.01716535,0.680982301,0.045083325,-0.001946628,1.642953873,369.0,0.000705,0.001500877,-0.004207312,-63.21052632,4132.017544,-39.70874929,-3.134999931,-43.37249899,1,1,1,1,0,99.0,5500.0,1
109,0.0,1.5,1.246025205,11.47399998,0.023022868,0.0,106.0,127.3653928,36.374247,0.0,9.795217752,0.016400782,-0.44401826,9.796625805,0.018997333,-0.442883639,-0.002379227,1008.022388,0.000153,6.37e-05,2.18e-05,-0.731944802,0.0146758,0.0171963,0.680987743,0.045177013,-0.00193719,1.642936957,369.0,-0.001408052,-0.00259655,-0.001134621,-63.21052632,4132.017544,-39.92470483,-3.268235221,-43.47882237,1,1,1,1,0,99.0,5500.0,1
110,0.0,1.5,1.246025205,11.47399998,0.023022868,0.0,106.0,127.3653928,36.374247,0.0,9.804196215,0.019273912,-0.442102844,9.79657774,0.017886967,-0.443985179,-0.03012352,1008.025732,0.000294,-8.86e-05,-0.000167,-0.731963301,0.01475505,0.0171993,0.680966103,0.045289446,-0.001823964,1.642991424,369.0,0.007618475,0.001386945,0.001882336,-63.21052632,4132.017544,-39.73411695,-3.38470581,-43.17176348,1,1,1,1,0,99.0,5500.0,1
111,0.0,1.5,1.246025205,11.47399998,0.023022868,0.0,106.0,127.3653928,36.374247,0.0,9.800604773,0.020710477,-0.439229713,9.796698093,0.020109525,-0.441231705,-0.062094116,1008.02959,0.000356,9.47e-05,0.000444,-0.731968346,0.0145763,0.0171737,0.680965149,0.045008402,-0.002050602,1.643004525,369.0,0.003906679,0.000601,0.002001992,-63.21052632,4132.017544,-40.03499913,-3.153749928,-43.67249894,1,1,1,1,0,99.0,5500.0,1
112,45.0,1.5,1.243008614,13.38000011,0.204000175,280.9089661,106.0,127.3653809,36.3742488,0.0,9.801682281,0.018795057,-0.440666278,9.796632576,0.019171403,-0.442728019,-0.106749344,1008.034888,0.000172,-8.86e-05,-1.4e-05,-0.731938601,0.01466405,0.0171964,0.680994549,0.045161129,-0.00195494,1.642918748,369.0,0.005049706,-0.000376,0.002061741,-63.21052632,4132.017544,-39.69882269,-3.197646997,-43.60588163,1,1,1,1,0,99.0,5500.0,1
113,45.0,1.5,1.243008614,13.38000011,0.204000175,280.9089661,106.0,127.3653809,36.3742488,0.0,9.797611952,0.015802213,-0.442222556,9.79655509,0.018545674,-0.444434194,-0.100143814,1008.034106,8.06e-05,3.05e-06,-0.001174694,-0.73196955,0.0147459,0.0172391,0.680958554,0.045335291,-0.001891134,1.643012679,369.0,0.011112833,0.001805661,0.001373641,-63.21052632,4132.017544,-40.02705765,-3.218823475,-43.69058744,1,1,1,1,0,99.0,5500.0,1
114,45.0,1.5,1.243008614,13.38000011,0.204000175,280.9089661,106.0,127.3653809,36.3742488,0.0,9.794259977,0.015083931,-0.443299982,9.796465158,0.016332797,-0.44652067,-0.070814514,1008.030542,0.000142,0.000247,-7.51e-05,-0.731987348,0.01490055,0.0172406,0.680936003,0.045548249,-0.001665483,1.643064922,369.0,-0.002205181,-0.001248865,0.003220688,-63.21052632,4132.017544,-39.81374955,-3.352499947,-43.73624897,1,1,1,1,0,99.0,5500.0,1
115,45.0,1.5,1.243008614,13.38000011,0.204000175,280.9089661,106.0,127.3653809,36.3742488,0.0,9.799766779,0.014964218,-0.443898548,9.796691704,0.016334778,-0.441534458,-0.119960785,1008.03645,0.000294,9.47e-05,0.0002,-0.732010749,0.0147267,0.0170548,0.680919445,0.045039272,-0.001665685,1.643120772,369.0,0.003075075,-0.00137056,-0.00236409,-63.21052632,4132.017544,-39.70941095,-3.116470505,-43.22470497,1,1,1,1,0,99.0,5500.0,1
116,45.0,1.5,1.243008614,13.38000011,0.204000175,280.9089661,106.0,127.3653809,36.3742488,0.0,9.804315948,0.016400782,-0.441743702,9.796661377,0.013173621,-0.442309837,-0.025630951,1008.025146,8.06e-05,-8.86e-05,-0.000258,-0.732126001,0.0148688,0.0169765,0.680794299,0.045118398,-0.001343336,1.643453765,369.0,0.007654572,0.003227161,0.000566,-63.21052632,4132.017544,-39.8682343,-3.137646984,-43.57411643,1,1,1,1,0,99.0,5500.0,1
117,0.0,1.5,1.237039804,13.20600033,0.069667786,0.0,106.0,127.3653854,36.3742474,0.0,9.804315901,0.014844504,-0.439588854,9.796713161,0.01656074,-0.441048439,-0.069228363,1008.030347,0.000203,9.47e-05,0.000444,-0.732087955,0.01469945,0.01704615,0.680837202,0.044989663,-0.001688726,1.643346864,369.0,0.009997034,-0.000998,0.001818727,-63.21052632,4132.017544,-39.94499874,-3.314999938,-43.72124863,1,1,1,1,0,99.0,5500.0,1
118,0.0,1.5,1.237039804,13.20600033,0.069667786,0.0,106.0,127.3653854,36.3742474,0.0,9.799168253,0.018795057,-0.441863415,9.796594191,0.021171643,-0.443486391,-0.057602692,1008.029004,0.000264,0.000156,0.000108,-0.731988254,0.01461445,0.0172953,0.680939743,0.045238561,-0.002158908,1.643071413,369.0,0.003172636,-0.002017444,0.001383549,-63.21052632,4132.017544,-39.67058675,-3.317646994,-43.65882268,1,1,1,1,0,99.0,5500.0,1
119,0.0,1.5,1.237039804,13.20600033,0.069667786,0.0,106.0,127.3653854,36.3742474,0.0,9.800604868,0.019633054,-0.439947997,9.796648788,0.018710937,-0.442389104,-0.040164185,1008.026904,8.06e-05,-0.000333,-0.000319,-0.731953347,0.0146691,0.01716805,0.680979449,0.045126531,-0.001907986,1.642960078,369.0,0.002639246,0.001879827,0.002201679,-63.21052632,4132.017544,-39.88235204,-3.236470531,-43.53529335,1,1,1,1,0,99.0,5500.0,1
120,0.0,1.5,1.237039804,13.20600033,0.069667786,0.0,106.0,127.3653854,36.3742474,0.0,9.795935965,0.01951334,-0.440785994,9.796634436,0.019608507,-0.442668104,0.002112961,1008.021826,0.000356,0.000186,-0.000258,-0.731936589,0.0146457,0.0172093,0.68099685,0.045155018,-0.001999513,1.642913741,369.0,-0.000698,-9.52e-05,0.001882111,-61.84313725,4101.392157,-39.28499889,-3.54749994,-41.62499881,1,1,1,1,0,99.0,5500.0,1
121,0.0,1.5,1.237039804,13.20600033,0.069667786,0.0,106.0,127.3653854,36.3742474,0.0,9.825265837,0.019752767,-0.44162399,9.796737957,0.019619977,-0.440366298,0.008454132,1008.021021,0.000233,-0.000119,-4.46e-05,-0.731945357,0.0145651,0.01712385,0.680991602,0.044920061,-0.002000682,1.642933565,369.0,0.02852788,0.000133,-0.001257692,-61.84313725,4101.392157,-39.71646993,-3.190588166,-42.34588152,1,1,1,1,0,99.0,5500.0,1
122,0.0,1.5,1.237039804,13.20600033,0.069667786,0.0,106.0,127.3653854,36.3742474,0.0,9.837955427,0.021189332,-0.443060553,9.796857357,0.019993038,-0.437689896,-0.01796875,1008.024268,0.000203,-2.75e-05,-0.000167,-0.731969652,0.0144576,0.0170373,0.680969751,0.044646872,-0.002038724,1.642998999,369.0,0.04109807,0.001196294,-0.005370657,-61.84313725,4101.392157,-39.63176368,-3.169411701,-42.55058737,1,1,1,1,0,99.0,5500.0,1
123,45.0,1.5,1.217210293,11.47999954,0.499291241,63.92901993,106.0,127.3654121,36.3742581,0.0,9.840230036,0.014365649,-0.439469142,9.796853924,0.01794598,-0.437855579,-0.024045563,1008.024951,-0.000292,-0.00036,0.00012,-0.732017407,0.0145386,0.0169734,0.680918249,0.044663766,-0.001829982,1.643134785,369.0,0.043495798,-0.003101476,-0.001613563,-61.84313725,4101.392157,-39.84374928,-3.371249914,-43.30874872,1,1,1,1,0,99.0,5500.0,1
124,45.0,1.5,1.217210293,11.47999954,0.499291241,63.92901993,106.0,127.3654121,36.3742581,0.0,9.821195602,0.019633053,-0.440426852,9.796862364,0.018791963,-0.437626913,0.082437897,1008.012158,-0.000323,-5.25e-05,-0.000109,-0.732060248,0.014498,0.01699515,0.680872649,0.044640433,-0.001916248,1.643262035,369.0,0.024812126,0.000841,-0.002919652,-61.84313725,4101.392157,-39.93529264,-3.352941078,-43.77529324,1,1,1,1,0,99.0,5500.0,1
125,45.0,1.5,1.217210293,11.47999954,0.499291241,63.92901993,106.0,127.3654121,36.3742581,0.0,9.807308722,0.012569943,-0.44006771,9.796754694,0.018141903,-0.440061814,0.068433762,1008.013916,-0.000414,-8.31e-05,0.000136,-0.732067558,0.01460665,0.01706375,0.680860552,0.044888968,-0.00184996,1.643288213,369.0,0.010913134,-0.004973391,-0.000365,-61.84313725,4101.392157,-39.88235249,-3.239999925,-43.39411679,1,1,1,1,0,99.0,5500.0,1
126,45.0,1.5,1.217210293,11.47999954,0.499291241,63.92901993,106.0,127.3654121,36.3742581,0.0,9.806470823,0.019393626,-0.439948,9.796744633,0.018334466,-0.440275091,-0.03646431,1008.026367,-0.000261,-0.000175,-1.71e-05,-0.732060251,0.01460705,0.01707825,0.680868152,0.044910738,-0.001869596,1.643267733,369.0,0.009726191,0.00105916,0.000327,-61.84313725,4101.392157,-39.83999944,-3.168749928,-43.63874888,1,1,1,1,0,99.0,5500.0,1
127,45.0,1.5,1.217210293,11.47999954,0.499291241,63.92901993,106.0,127.3654121,36.3742581,0.0,9.796414804,0.019992195,-0.44138456,9.796689606,0.018286723,-0.44150385,0.005812073,1008.021387,-0.00033,-9.77e-05,0.000131,-0.732082251,0.01465095,0.017123,0.680842346,0.045036164,-0.001864728,1.64333539,369.0,-0.000275,0.001705472,0.000119,-61.84313725,4101.392157,-39.83294027,-3.26117639,-43.85294028,1,1,1,1,0,99.0,5500.0,1
128,0.0,1.5,1.196271658,11.49100018,0.048880856,0.0,106.0,127.365413,36.3742593,0.0,9.791386938,0.017837348,-0.443778831,9.796714544,0.016303289,-0.441025512,-0.020346451,1008.024561,-4.34e-05,-0.000102,0.000133,-0.732064652,0.01470885,0.01703585,0.680862153,0.044987322,-0.001662474,1.643277729,369.0,-0.005327606,0.001534058,-0.002753319,-61.84313725,4101.392157,-39.6494107,-3.201176405,-43.46117603,1,1,1,1,0,99.0,5500.0,1
129,0.0,1.5,1.196271658,11.49100018,0.048880856,0.0,106.0,127.365413,36.3742593,0.0,9.797971153,0.019273912,-0.442461985,9.796632004,0.017462315,-0.442811009,0.100405121,1008.010083,-4.34e-05,8.12e-05,-2.02e-05,-0.732085454,0.01472705,0.0171433,0.680836803,0.045169586,-0.001780662,1.643346173,369.0,0.002416563,0.002170738,-0.000609,-61.84313725,4101.392157,-39.86624861,-3.318749949,-43.73999929,1,1,1,1,0,99.0,5500.0,1
130,0.0,1.5,1.196271658,11.49100018,0.048880856,0.0,106.0,127.365413,36.3742593,0.0,9.80108366,0.01951334,-0.442701411,9.796645355,0.018779813,-0.442459284,0.102783203,1008.00979,0.000109,-0.000194,4.09e-05,-0.732043201,0.0146667,0.017175,0.6808828,0.045133695,-0.001915009,1.643224317,369.0,0.004438305,0.000734,-0.000242,-61.84313725,4101.392157,-39.91411658,-3.363529339,-43.21411716,1,1,1,1,0,99.0,5500.0,1
131,0.0,1.5,1.196271658,11.49100018,0.048880856,0.0,106.0,127.365413,36.3742593,0.0,9.799766827,0.01472479,-0.439349428,9.796671343,0.016441842,-0.441977395,0.154836273,1008.00354,1.43e-05,-0.000163,-1.82e-05,-0.732058001,0.0147369,0.0170761,0.680867746,0.045084487,-0.001676602,1.643260962,369.0,0.00249691,-0.002195907,0.00238854,-61.84313725,4101.392157,-39.74117548,-3.363529346,-43.7188227,1,1,1,1,0,99.0,5500.0,1
132,0.0,1.5,1.196271658,11.49100018,0.048880856,0.0,106.0,127.365413,36.3742593,0.0,9.770796156,0.011133378,-0.443778835,9.796672249,0.018931401,-0.44186144,0.22723465,1007.994849,-3.67e-05,0.00172997,0.000168,-0.732042301,0.0146403,0.0171579,0.680884701,0.04507267,-0.001930467,1.643220502,369.0,-0.025876093,-0.007798023,-0.001917395,-61.84313725,4101.392157,-39.74624896,-3.131249964,-43.331249,1,1,1,1,0,99.0,5500.0,1
133,45.0,1.5,1.182073593,11.81999969,0.210147038,248.629425,106.0,127.3654013,36.3742555,0.0,9.803358173,0.018435916,-0.443539408,9.796614313,0.018015824,-0.443178868,0.24308815,1007.993091,-6.11e-06,0.000203,-1.53e-05,-0.732024151,0.0147207,0.01717495,0.680902094,0.04520714,-0.001837104,1.643168378,369.0,0.00674386,0.00042,-0.000361,-61.84313725,4101.392157,-39.81176354,-3.250588137,-43.61999916,1,1,1,1,0,99.0,5500.0,1
134,45.0,1.5,1.182073593,11.81999969,0.210147038,248.629425,106.0,127.3654013,36.3742555,0.0,9.796654224,0.022147042,-0.444856259,9.796640539,0.017306797,-0.442628349,0.211380768,1007.996777,0.00033,-0.000133,4.58e-05,-0.731996602,0.01472875,0.01712915,0.68093259,0.04515094,-0.001764803,1.643084383,369.0,1.37e-05,0.004840246,-0.00222791,-61.84313725,4101.392157,-39.77294047,-3.215294039,-43.73294,1,1,1,1,0,99.0,5500.0,1
135,45.0,1.5,1.182073593,11.81999969,0.210147038,248.629425,106.0,127.3654013,36.3742555,0.0,9.79449935,0.014844504,-0.443778832,9.796616697,0.018045836,-0.4431269,0.252071381,1007.991919,5.5e-05,-0.000133,-7.64e-05,-0.731989446,0.01471865,0.0171733,0.680939457,0.045201835,-0.001840164,1.643066406,369.0,-0.002117348,-0.003201332,-0.000652,-61.84313725,4101.392157,-39.82499886,-3.284999922,-43.2149992,1,1,1,1,0,99.0,5500.0,1
136,45.0,1.5,1.182073593,11.81999969,0.210147038,248.629425,106.0,127.3654013,36.3742555,0.0,9.797612047,0.017837347,-0.443539408,9.796643209,0.018505428,-0.442520039,0.180730438,1008.000439,8.33e-05,0.000306,8.05e-05,-0.731987855,0.01468045,0.01716655,0.6809421,0.045139894,-0.00188703,1.64306128,369.0,0.000969,-0.000668,-0.001019369,-61.84313725,4101.392157,-39.99529289,-3.197646983,-43.48941062,1,1,1,1,0,99.0,5500.0,1
137,45.0,1.5,1.182073593,11.81999969,0.210147038,248.629425,106.0,127.3654013,36.3742555,0.0,9.793781137,0.014365649,-0.44389855,9.796659231,0.017663279,-0.442201032,0.22168541,1007.995605,0.000233,-0.00012,-5.07e-05,-0.731984594,0.0147009,0.0171253,0.680946246,0.045107323,-0.001801154,1.643048847,369.0,-0.002878094,-0.00329763,-0.001697518,-61.84313725,4101.392157,-39.9776461,-3.204705813,-43.50352882,1,1,1,1,0,99.0,5500.0,1
138,45.0,1.5,1.16694963,11.50199986,0.196637094,68.41676331,106.0,127.3654126,36.3742591,0.0,9.790548801,0.016281069,-0.441983129,9.79669342,0.019057831,-0.44138439,0.224064255,1007.995239,-1.16e-05,0.000185,-0.000203,-0.7319792,0.0146206,0.0171431,0.680953446,0.045023977,-0.001943359,1.64303425,369.0,-0.006144619,-0.002776763,-0.000599,-61.84313725,4101.392157,-39.97874928,-3.149999931,-43.5899992,1,1,1,1,0,99.0,5500.0,1
