Time,location_bearingAccuracy,location_speedAccuracy,location_verticalAccuracy,location_horizontalAccuracy,location_speed,location_bearing,location_altitude,location_longitude,location_latitude,pedometer_steps,totalAcceleration_z,totalAcceleration_y,totalAcceleration_x,gravity_z,gravity_y,gravity_x,barometer_relativeAltitude,barometer_pressure,gyroscope_z,gyroscope_y,gyroscope_x,orientation_qz,orientation_qy,orientation_qx,orientation_qw,orientation_roll,orientation_pitch,orientation_yaw,light_lux,accelerometer_z,accelerometer_y,accelerometer_x,wiFi_level,wiFi_frequency,magnetometer_z,magnetometer_y,magnetometer_x,network_type,network_isConnected,network_isInternetReachable,network_isWifiEnabled,network_isConnectionExpensive,network_strength,network_frequency,label
0,45,1.5,1.583091378,17.25,0.173615664,262.4544067,81.5,127.3525867,36.3643585,0,9.216690372,-0.565753028,0.693353829,9.121635556,-1.072405499,-0.819277845,-0.026686859,1010.965186,-0.460783597,-0.402693362,-0.867536151,0.802295947,-0.02282385,-0.0728104,0.565366954,0.076882866,0.118090708,-1.890875423,1727.5,0.15534122,0.169763942,1.618247372,-69.66666667,3270.055556,-43.7682338,-0.275294207,22.82823487,1,1,1,1,0,97,2430,1
1,45,1.5,1.583091378,17.25,0.173615664,262.4544067,81.5,127.3525867,36.3643585,0,9.671602614,-2.01119084,1.838239708,8.940958238,-2.676103362,1.103949421,-0.540345001,1011.026733,-0.42229909,0.819250938,0.529970791,0.608056402,-0.140896849,-0.05986255,0.757497749,-0.140587944,0.287286684,-1.317790401,986,0.616388273,0.662398538,0.475553663,-69.66666667,3270.055556,-50.0249989,16.03499973,12.59249965,1,1,1,1,0,98,2431,1
2,45,1.5,1.583091378,17.25,0.173615664,262.4544067,81.5,127.3525867,36.3643585,0,9.82018841,-0.284918703,0.557020999,9.786678123,-0.292436376,0.552788183,-0.614593124,1011.035571,-9.96E-05,-0.001049467,0.001205848,0.541865394,-0.031785,0.00275375,0.83983905,-0.056423769,0.029824663,-1.145146632,986,0.064924669,0.009193666,0.006394696,-69.66666667,3270.055556,-51.83293982,10.51411747,16.88117594,1,1,1,1,0,99,2432,1
3,45,1.5,1.583091378,17.25,0.173615664,262.4544067,81.5,127.3525867,36.3643585,0,9.831640601,-0.282674069,0.556519246,9.786687374,-0.293516387,0.552126437,-0.584735298,1011.032007,5.31E-05,-0.000164,-0.000566,0.556258747,-0.03173525,0.0032364,0.830304495,-0.056356311,0.029934826,-1.179693359,986,0.042888117,-0.032104985,-0.007309207,-69.66666667,3270.055556,-51.75882227,9.056470254,15.27176436,1,1,1,1,0,99,2432,1
4,45,1.5,1.583091378,17.25,0.173615664,262.4544067,81.5,127.3525867,36.3643585,0,9.814555,-0.290552294,0.549133969,9.786739922,-0.288020417,0.554116791,-0.604023933,1011.034326,-0.000558,-0.000836,7.57E-05,0.540401754,-0.03172225,0.0029231,0.840800452,-0.056558747,0.029374143,-1.141653109,986,0.016977501,0.009566255,0.003629522,-69.66666667,3270.055556,-52.1549983,9.956249714,15.42749977,1,1,1,1,0,99,2432,1
5,45,1.5,1.583091378,17.25,0.173615664,262.4544067,81.5,127.3525867,36.3643585,0,9.781035143,-0.288158015,0.557725189,9.786526632,-0.288826145,0.557534578,-0.587377357,1011.032324,-0.000466,0.001424538,0.001114218,0.545004904,-0.0318746,0.0031585,0.837782457,-0.056908093,0.029456331,-1.152659613,986,0.003423691,0.001034311,0.002127159,-69.66666667,3270.055556,-52.07999824,9.783529113,16.48941124,1,1,1,1,0,99,2432,1
6,45,1.5,1.583091378,17.25,0.173615664,262.4544067,81.5,127.3525867,36.3643585,0,9.800963938,-0.296441149,0.560110662,9.786359262,-0.289045443,0.56034832,-0.507845116,1011.022803,-0.000313,-0.000591,0.001266935,0.552445504,-0.0319708,0.0035116,0.832915545,-0.057195648,0.029478702,-1.170446295,986,0.025378895,-0.004253222,-0.003918856,-69.66666667,3270.055556,-51.78705776,10.04470562,16.89882312,1,1,1,1,0,99,2432,1
7,45,1.5,1.583091378,17.25,0.173615664,262.4544067,81.5,127.3525867,36.3643585,0,9.810893059,-0.28083435,0.555612592,9.786860895,-0.289128074,0.551454467,-0.508373451,1011.022852,-0.000191,-0.001110553,-0.00023,0.545714745,-0.03161955,0.0030024,0.83735505,-0.056286888,0.029487134,-1.154324782,986,0.038045692,-0.010515416,-0.001968391,-69.66666667,3270.055556,-52.07249856,10.06874985,16.44374961,1,1,1,1,0,99,2432,1
8,45,1.5,1.502468944,14.18000031,0.633604288,150.7011261,81,127.3526061,36.3643313,0,9.816667557,-0.293228246,0.545049618,9.787068748,-0.293148984,0.54558275,-0.569938278,1011.030273,-0.000619,-0.00108001,0.00087,0.544537902,-0.0314851,0.002623,0.838126802,-0.055687629,0.029897332,-1.151506221,986,0.031732512,-0.001825674,-0.005793492,-69.66666667,3270.055556,-52.04470444,10.0199999,15.91058804,1,1,1,1,0,99,2432,1
9,45,1.5,1.502468944,14.18000031,0.633604288,150.7011261,81,127.3526061,36.3643313,0,9.807248831,-0.289258325,0.55143141,9.786873055,-0.292954892,0.549208236,-0.556727409,1011.028662,-0.001657277,-0.000897,0.000656,0.535380045,-0.0316625,0.00238715,0.844008297,-0.056058028,0.029877531,-1.129722267,986,0.017323065,0.002170217,-0.002236155,-69.66666667,3270.055556,-52.21411649,10.03764691,15.03882324,1,1,1,1,0,99,2432,1
10,45,1.5,1.502468944,14.18000031,0.633604288,150.7011261,81,127.3526061,36.3643313,0,9.778922418,-0.292664887,0.549133967,9.786776066,-0.294370739,0.550211763,-0.527926636,1011.02522,-0.000191,-0.000561,0.000656,0.529281199,-0.03176075,0.0021251,0.847842705,-0.0561608,0.030021972,-1.115301186,986,-0.001973581,-0.004913612,-0.008746512,-69.66666667,3270.055556,-52.01999855,10.22624975,16.36124974,1,1,1,1,0,99,2432,1
11,45,1.5,1.502468944,14.18000031,0.633604288,150.7011261,81,127.3526061,36.3643313,0,9.800893671,-0.30097443,0.557866026,9.786623383,-0.295395012,0.552373254,-0.573109245,1011.03064,-7.94E-06,-0.00108001,0.000778,0.527170703,-0.0318873,0.0020598,0.849157497,-0.056381836,0.030126466,-1.110319221,986,0.008714104,-0.003290769,-1.41E-05,-69.66666667,3270.055556,-51.8929403,10.37999972,16.37294096,1,1,1,1,0,99,2432,1
12,45,1.5,1.502468944,14.18000031,0.633604288,150.7011261,81,127.3526061,36.3643313,0,9.818621755,-0.294944728,0.55711782,9.786669827,-0.29471235,0.551918963,-0.519999313,1011.024219,0.000145,-0.000744,0.000992,0.527134502,-0.0318493,0.0020758,0.849181396,-0.056335299,0.030056822,-1.11023519,986,0.03105402,0.001892544,0.002355662,-69.66666667,3270.055556,-51.98117514,10.26705871,16.41529358,1,1,1,1,0,99,2432,1
13,45,1.5,1.582130313,15.40299988,0.663637757,336.2477722,81.5,127.3525892,36.3643618,0,9.818639194,-0.295481682,0.554626714,9.786711884,-0.291698773,0.55277226,-0.576280212,1011.031006,-0.000833,-0.001049467,0.001022588,0.526762497,-0.03180615,0.0022154,0.849413499,-0.05642197,0.029749385,-1.109365225,986,0.030054235,-0.003275886,-0.001251054,-69.66666667,3270.055556,-52.20374894,10.28999972,15.65249962,1,1,1,1,0,99,2432,1
14,45,1.5,1.582130313,15.40299988,0.663637757,336.2477722,81.5,127.3525892,36.3643618,0,9.801315981,-0.294495798,0.551669082,9.786569643,-0.291959594,0.555151406,-0.576015854,1011.031006,-0.000436,-0.000805,0.001053132,0.526896152,-0.03191605,0.00227315,0.84932625,-0.056665115,0.029775993,-1.109679967,986,0.016190052,0.000576,0.004151195,-69.66666667,3270.055556,-52.34823384,10.23176451,15.2541174,1,1,1,1,0,99,2432,1
15,45,1.5,1.582130313,15.40299988,0.663637757,336.2477722,81.5,127.3525892,36.3643618,0,9.788244367,-0.290305817,0.55053357,9.786579227,-0.293593976,0.554123193,-0.619349289,1011.036157,-0.000588,-0.000897,0.000809,0.527039951,-0.03191505,0.00218005,0.8492374,-0.056560334,0.029942728,-1.110015202,986,-0.000819,-0.004373521,-8.80E-05,-69.66666667,3270.055556,-52.15764618,10.23529378,15.97411717,1,1,1,1,0,99,2432,1
16,45,1.5,1.582130313,15.40299988,0.663637757,336.2477722,81.5,127.3525892,36.3643618,0,9.798217605,-0.297171754,0.553922513,9.786558294,-0.295277835,0.553550923,-0.601117325,1011.034033,-0.000863,-0.000194,0.000564,0.527104852,-0.0319354,0.0020942,0.849196401,-0.056502168,0.030114513,-1.110164773,986,0.001117325,-0.003168519,0.003596827,-69.66666667,3270.055556,-51.86999917,10.02374977,16.76999956,1,1,1,1,0,99,2432,1
17,45,1.5,1.582130313,15.40299988,0.663637757,336.2477722,81.5,127.3525892,36.3643618,0,9.809062116,-0.301678626,0.55237328,9.786572742,-0.297203065,0.552305251,-0.543515968,1011.027051,-0.001076955,-0.001141096,0.001205848,0.527332845,-0.03193265,0.00198575,0.849055347,-0.056375203,0.030310919,-1.110697627,986,0.026601887,-0.00519384,-0.002220619,-69.66666667,3270.055556,-51.91764585,10.18235274,16.60588197,1,1,1,1,0,99,2432,1
18,45,1.5,1.812798023,13.63199997,0.168334365,213.8890533,81.5,127.3525845,36.3643536,0,9.812935293,-0.295992222,0.558763884,9.786442757,-0.295922731,0.555292442,-0.433597183,1011.013892,-0.001168585,-0.000622,0.0009,0.527348998,-0.0320277,0.0021223,0.849041551,-0.056680214,0.030180303,-1.110738939,986,0.027569962,0.002145216,0.000419,-69.66666667,3270.055556,-52.25999922,10.22117626,15.93176427,1,1,1,1,0,99,2432,1
19,45,1.5,1.812798023,13.63199997,0.168334365,213.8890533,81.5,127.3525845,36.3643536,0,9.80075264,-0.29491832,0.551528247,9.786397505,-0.297994341,0.554980072,-0.426198769,1011.013013,-0.000894,-0.000744,0.000564,0.527462748,-0.0320697,0.00202845,0.848969445,-0.056648658,0.030391644,-1.111002809,986,0.01468606,-0.003564572,0.000611,-69.66666667,3270.055556,-52.30499864,10.35374981,14.96624976,1,1,1,1,0,99,2432,1
20,45,1.5,1.812798023,13.63199997,0.168334365,213.8890533,81.5,127.3525845,36.3643536,0,9.78779546,-0.299706869,0.549415651,9.786530542,-0.299869652,0.551616096,-0.426991463,1011.013086,-0.000802,-0.000836,0.001083675,0.527534446,-0.03197415,0.00185925,0.848928896,-0.05630525,0.030582962,-1.111167318,986,-0.000531,-0.00240754,-0.003207445,-69.66666667,3270.055556,-52.36941057,10.32705874,15.24352898,1,1,1,1,0,99,2432,1
21,45,1.5,1.850144625,13.42399979,0.309323192,95.08860779,81.20000458,127.3525985,36.3643529,0,9.775375187,-0.302576479,0.550533567,9.786390638,-0.30135861,0.553277481,-0.393963051,1011.009082,-0.001168585,-0.000713,0.001114218,0.527776548,-0.0320858,0.0018487,0.848774204,-0.056475277,0.030734865,-1.111735278,986,-0.007214642,-0.001038297,-0.003671697,-69.66666667,3270.055556,-52.54941043,10.18941144,15.08470558,1,1,1,1,0,99,2432,1
22,45,1.5,1.850144625,13.42399979,0.309323192,95.08860779,81.20000458,127.3525985,36.3643529,0,9.772162213,-0.303227863,0.551809921,9.786441565,-0.301360086,0.552381372,-0.461340904,1011.017236,-0.000774,-0.000996,0.001177382,0.527700543,-0.03204715,0.0018216,0.848823053,-0.05638371,0.030735015,-1.111556023,986,-0.017321539,-0.004508521,-0.001817879,-69.66666667,3270.055556,-52.51874876,10.09124976,15.07499969,1,1,1,1,0,99,2432,1
23,45,1.5,1.850144625,13.42399979,0.309323192,95.08860779,81.20000458,127.3525985,36.3643529,0,9.768922974,-0.301256104,0.552514122,9.786459589,-0.301188283,0.552154875,-0.394227219,1011.00918,-0.000506,-0.000254,0.000637,0.527750096,-0.0320326,0.0018248,0.84879255,-0.056360536,0.030717488,-1.111672938,986,-0.014945173,-0.000371,-0.00302794,-69.66666667,3270.055556,-52.51058736,10.35882333,15.01411741,1,1,1,1,0,99,2432,1
24,45,1.5,1.850144625,13.42399979,0.309323192,95.08860779,81.20000458,127.3525985,36.3643529,0,9.769389391,-0.298835425,0.545146454,9.786597157,-0.300569682,0.550054219,-0.39290638,1011.009033,-0.000567,-0.000376,0.000392,0.527593452,-0.03192515,0.00178905,0.848893997,-0.056145778,0.030654378,-1.111304528,986,-0.018315125,0.001045904,-8.93E-05,-69.66666667,3270.055556,-52.53529246,10.11529384,14.95058789,1,1,1,1,0,99,2432,1
25,45,1.5,1.850144625,13.42399979,0.309323192,95.08860779,81.20000458,127.3525985,36.3643529,0,9.768359465,-0.301115266,0.54997901,9.786524057,-0.301455319,0.550867343,-0.3754673,1011.006934,-0.000293,-0.000346,0.000362,0.527680805,-0.0319841,0.0017759,0.848837802,-0.05622902,0.030744731,-1.111508995,986,-0.018960142,-0.003096434,-0.000663,-69.66666667,3270.055556,-52.49624872,10.06874979,14.67374969,1,1,1,1,0,99,2432,1
26,45,1.5,1.850144625,13.42399979,0.309323192,95.08860779,81.20000458,127.3525985,36.3643529,0,9.768359465,-0.296749234,0.548852289,9.786489391,-0.299842532,0.552363223,-0.37282486,1011.006665,-0.000629,-0.000376,0.000423,0.527591154,-0.0320057,0.0018827,0.848892346,-0.056381587,0.030580195,-1.111301094,986,-0.019045401,0.000199,-0.002757436,-69.66666667,3270.055556,-52.5599989,10.13647046,14.90117612,1,1,1,1,0,99,2432,1
27,45,1.5,1.889380336,12.82400036,0.182904854,150.3492584,81.20000458,127.3526027,36.3643453,0,9.761009276,-0.297488648,0.548288938,9.786401558,-0.303156266,0.552106303,-0.341646004,1011.002905,-2.57E-05,-0.000236,0.000191,0.527892348,-0.03208325,0.00174365,0.848702499,-0.056355922,0.030918262,-1.112004489,986,-0.025661516,0.001477642,-0.004056796,-69.66666667,3270.055556,-52.67646947,10.13294108,15.01764679,1,1,1,1,0,99,2432,1
28,45,1.5,1.889380336,12.82400036,0.182904854,150.3492584,81.20000458,127.3526027,36.3643453,0,9.763852568,-0.301819465,0.547584734,9.786448288,-0.303337057,0.551175663,-0.37943058,1011.007373,3.54E-05,0.00013,7.33E-06,0.527877152,-0.0320478,0.00171015,0.848713452,-0.05626086,0.030936706,-1.111968184,986,-0.019004297,-0.000736,-0.002048737,-69.66666667,3270.055556,-52.1174984,10.22250003,15.09749967,1,1,1,1,0,99,2432,1
29,45,1.5,1.889380336,12.82400036,0.182904854,150.3492584,81.20000458,127.3526027,36.3643453,0,9.761880987,-0.307030538,0.548148092,9.786540222,-0.302839001,0.549811339,-0.426198769,1011.013037,-0.000453,-0.000359,0.000435,0.5277796,-0.0319754,0.00169125,0.848776653,-0.056121365,0.030885894,-1.11173889,986,-0.019096088,-0.002311325,-0.002480116,-69.66666667,3270.055556,-52.63058741,10.13647023,15.24352926,1,1,1,1,0,99,2432,1
30,45,1.5,1.889380336,12.82400036,0.182904854,150.3492584,81.20000458,127.3526027,36.3643453,0,9.769090176,-0.301977908,0.556519251,9.786417246,-0.300616091,0.553221181,-0.404003716,1011.010376,-8.67E-05,-2.26E-05,3.79E-05,0.527774402,-0.03206335,0.00187925,0.848776352,-0.056469391,0.030659113,-1.111731613,986,-0.015022612,0.000853,-0.003375968,-69.66666667,3270.055556,-52.17529274,10.23176457,15.11647017,1,1,1,1,0,99,2432,1
31,45,1.5,1.889380336,12.82400036,0.182904854,150.3492584,81.20000458,127.3526027,36.3643453,0,9.771598816,-0.298439315,0.549415655,9.786490059,-0.301399553,0.551499686,-0.445751762,1011.015356,0.000145,-9.83E-05,0.000139,0.527713302,-0.03200995,0.0017966,0.848816592,-0.056293625,0.030739041,-1.111585796,986,-0.015693998,0.001516636,-0.001175618,-69.66666667,3270.055556,-52.47374868,10.19249982,15.0599997,1,1,1,1,0,99,2432,1
32,45,1.5,1.883981586,13.15799999,0.168798506,343.0940247,81.5,127.3525996,36.3643534,0,9.766246852,-0.297875951,0.550683211,9.786472273,-0.300555599,0.55228036,-0.430690575,1011.01355,8.92E-05,-0.000158,0.000126,0.527693555,-0.0320211,0.00185345,0.848828244,-0.056373245,0.030652941,-1.111541009,986,-0.016394567,0.001031823,-0.00028,-69.66666667,3270.055556,-52.50352859,10.17529387,15.05999963,1,1,1,1,0,99,2432,1
33,45,1.5,1.883981586,13.15799999,0.168798506,343.0940247,81.5,127.3525996,36.3643534,0,9.769838393,-0.298236858,0.549486067,9.786499166,-0.300299962,0.551938409,-0.300955009,1010.997974,0.000425,2.57E-05,-2.63E-05,0.527662903,-0.03199945,0.00185415,0.848848146,-0.05633826,0.030626862,-1.111469233,986,-0.015224218,0.003649314,-0.001734057,-69.66666667,3270.055556,-52.65176369,10.10823502,15.05647025,1,1,1,1,0,99,2432,1
34,45,1.5,1.883981586,13.15799999,0.168798506,343.0940247,81.5,127.3525996,36.3643534,0,9.777654928,-0.301537785,0.550964888,9.786444139,-0.30028739,0.552921328,-0.259471321,1010.993018,0.000272,0.000331,4.28E-06,0.527677792,-0.0320417,0.00188175,0.848837101,-0.056438693,0.030625579,-1.111504465,986,-0.008944082,0.000285,0.000396,-69.66666667,3270.055556,-52.50374889,10.3012498,15.23624963,1,1,1,1,0,99,2432,1
35,45,1.5,1.883981586,13.15799999,0.168798506,343.0940247,81.5,127.3525996,36.3643534,0,9.773711373,-0.301819461,0.550683207,9.786399746,-0.300143941,0.553787816,-0.235162163,1010.990161,0.000108,-0.000205,7.95E-05,0.527726105,-0.0320753,0.00191315,0.848805848,-0.056527208,0.030610945,-1.111618835,986,-0.014406538,-0.002492392,7.95E-06,-69.66666667,3270.055556,-52.41882234,10.21411739,15.25764667,1,1,1,1,0,99,2432,1
36,45,1.5,1.883981586,13.15799999,0.168798506,343.0940247,81.5,127.3525996,36.3643534,0,9.774477303,-0.304072898,0.551431421,9.786465168,-0.300466801,0.552449355,-0.223007774,1010.988696,5.99E-05,4.34E-05,-0.000161,0.527690896,-0.03202605,0.00186175,0.848829642,-0.0563905,0.030643882,-1.111534959,986,-0.014711428,0.000344,-0.004998416,-69.66666667,3270.055556,-52.39411612,10.24235254,15.41647036,1,1,1,1,0,99,2432,1
37,45,1.5,1.892100215,12.82400036,0.167044982,163.4024811,81.20000458,127.3526025,36.3643453,0,9.786809641,-0.301678626,0.545612984,9.78654542,-0.302508903,0.549862719,-0.238861847,1010.990625,-0.000184,0.000227,-0.000161,0.527756399,-0.0319688,0.00170605,0.848791251,-0.056126562,0.03085222,-1.11168502,986,-0.007010174,0.002625981,0.0035739,-69.66666667,3270.055556,-52.35374904,10.14749974,15.41624987,1,1,1,1,0,99,2432,1
38,45,1.5,1.892100215,12.82400036,0.167044982,163.4024811,81.20000458,127.3526025,36.3643453,0,9.769767986,-0.304072901,0.552936643,9.786305046,-0.304483242,0.553001288,-0.24493885,1010.99126,0.001403768,0.001112386,-0.000436,0.528094694,-0.032157451,0.00171805,0.848573795,-0.056447632,0.031053643,-1.112479478,986,-0.008445883,-0.002941644,0.001393038,-69.66666667,3270.055556,-52.45764587,10.25647034,15.28588205,1,1,1,1,0,99,2432,1
39,45,1.5,1.892100215,12.82400036,0.167044982,163.4024811,81.20000458,127.3526025,36.3643453,0,9.782258689,-0.310058588,0.54050754,9.786741495,-0.31013848,0.542116576,-0.234634018,1010.990088,0.000243,-0.000109,8.31E-05,0.528162605,-0.031838,0.001182,0.848544651,-0.055336408,0.031630597,-1.112626678,986,-0.009002113,0.000798,-0.000412,-69.66666667,3270.055556,-52.51058668,10.00235277,15.27529374,1,1,1,1,0,99,2432,1
40,45,1.5,1.892100215,12.82400036,0.167044982,163.4024811,81.20000458,127.3526025,36.3643453,0,9.775824098,-0.305622143,0.543922905,9.786717749,-0.30956447,0.542871833,-0.251015854,1010.991992,-9.29E-05,-1.77E-05,-0.0001,0.528134903,-0.0318553,0.0012262,0.848561096,-0.055413477,0.031572035,-1.112562543,986,-0.011252832,0.001301585,-0.000329,-69.66666667,3270.055556,-51.90374947,10.07624984,17.05124962,1,1,1,1,0,99,2432,1
41,45,1.5,1.892100215,12.82400036,0.167044982,163.4024811,81.20000458,127.3526025,36.3643453,0,9.799344399,-0.311537406,0.544767941,9.786749887,-0.310098441,0.541983923,-0.309410286,1010.998999,-0.000215,-0.000201,0.000266,0.528114447,-0.03183125,0.00117835,0.848574692,-0.055322847,0.031626513,-1.112513167,986,0.018523788,-0.002234708,0.001396748,-69.66666667,3270.055556,-52.0729397,9.984705588,16.6447056,1,1,1,1,0,99,2432,1
42,45,1.5,1.814932108,14.44999981,0.172648177,255.9605713,81.5,127.3525912,36.3643434,0,9.819519639,-0.309011092,0.544847161,9.786740351,-0.308435757,0.543105933,-0.213495827,1010.987549,-9.29E-05,-0.00017,5.56E-05,0.528066197,-0.0318351,0.0012788,0.848604494,-0.055437196,0.031456882,-1.112402695,986,0.030744123,-0.003179111,0.003028145,-69.66666667,3270.055556,-51.98117559,9.98117632,16.37294068,1,1,1,1,0,99,2432,1
43,45,1.5,1.814932108,14.44999981,0.172648177,255.9605713,81.5,127.3525912,36.3643434,0,9.812160716,-0.310692368,0.544345431,9.786746025,-0.309693076,0.542288128,-0.21032505,1010.987158,-9.41E-05,-0.000194,0.000205,0.528040847,-0.0318336,0.00120135,0.848620504,-0.055353858,0.031585156,-1.11234054,986,0.02235837,0.000233,0.001691121,-69.66666667,3270.055556,-52.51124859,10.1812498,15.14999968,1,1,1,1,0,99,2432,1
44,45,1.5,1.814932108,14.44999981,0.172648177,255.9605713,81.5,127.3525912,36.3643434,0,9.882862203,-0.309283973,0.548852289,9.786453056,-0.313799204,0.545028228,-0.256829262,1010.992749,-0.000186,-0.008226523,-3.97E-05,0.528364652,-0.03206275,0.0011099,0.848410091,-0.055634653,0.032004082,-1.113096851,986,0.034263468,0.002663191,-0.006196678,-69.66666667,3270.055556,-52.54235167,10.24941153,14.95764671,1,1,1,1,0,99,2432,1
45,45,1.5,1.814932108,14.44999981,0.172648177,255.9605713,81.5,127.3525912,36.3643434,0,9.824757099,-0.246311022,0.652739167,9.78332119,-0.269094504,0.608256643,-0.168577194,1010.98208,0.002288301,0.018895895,-0.004468479,0.525313655,-0.03360335,0.00464215,0.850195953,-0.062091101,0.027444032,-1.106094897,986,-0.057417774,0.016857654,0.009466262,-69.66666667,3270.055556,-58.15764595,11.57999981,14.35764677,1,1,1,1,0,99,2432,1
46,45,1.5,1.814932108,14.44999981,0.172648177,255.9605713,81.5,127.3525912,36.3643434,0,9.767937043,-0.352662593,0.451954579,9.789900684,-0.354859968,0.449748841,-0.2264431,1010.989111,-3.30E-05,0.000539,-0.001444696,0.481942704,-0.0288237,-0.00479785,0.875629801,-0.045907806,0.036193551,-1.005462506,986,-0.015632915,-0.001647547,0.00264938,-69.66666667,3270.055556,-51.28499866,13.52999961,15.90374964,1,1,1,1,0,99,2432,1
47,45,1.5,1.727859139,15.0170002,0.578961253,71.99304199,81.20000458,127.3526204,36.3643511,0,9.771880543,-0.361253819,0.444490073,9.789694071,-0.364827985,0.446244311,-0.248374176,1010.991699,-0.000155,0.000845,-0.000803,0.483546151,-0.0289235,-0.00527565,0.8748207,-0.045551538,0.037210689,-1.009036085,986,-0.011356115,0.002693918,-0.003782329,-69.66666667,3270.055556,-50.30117529,13.21058795,15.90352922,1,1,1,1,0,99,2432,1
48,45,1.5,1.727859139,15.0170002,0.578961253,71.99304199,81.20000458,127.3526204,36.3643511,0,9.774028301,-0.374255078,0.438301932,9.789713669,-0.372218122,0.439665553,-0.211117935,1010.98728,0.00015,0.000478,-0.000651,0.484351401,-0.02881745,-0.0057412,0.874373847,-0.044880813,0.037964809,-1.010874152,986,-0.017840242,0.000387,-0.003308968,-69.66666667,3270.055556,-50.09646965,13.39411736,15.91764686,1,1,1,1,0,99,2432,1
49,45,1.5,1.727859139,15.0170002,0.578961253,71.99304199,81.20000458,127.3526204,36.3643511,0,9.769767873,-0.381675573,0.431955345,9.789726925,-0.379035671,0.433544007,-0.217195129,1010.987964,0.000242,0.000112,-7.02E-05,0.485524,-0.02872105,-0.00615805,0.873723552,-0.04425669,0.038660512,-1.013553524,986,-0.022163105,-0.001654023,-0.004130818,-69.66666667,3270.055556,-50.1412487,13.3799997,16.19249976,1,1,1,1,0,99,2432,1
50,45,1.5,1.727859139,15.0170002,0.578961253,71.99304199,81.20000458,127.3526204,36.3643511,0,9.770190407,-0.380971374,0.435335499,9.78963871,-0.381390254,0.433475409,-0.173333168,1010.982715,0.000272,0.000203,-3.97E-05,0.484419797,-0.0287686,-0.0063013,0.874332404,-0.044250096,0.038900793,-1.01102542,986,-0.020997477,0.00237655,-0.002745365,-69.66666667,3270.055556,-50.15293996,13.48588197,16.12588209,1,1,1,1,0,99,2432,1
51,45,1.5,1.727859139,15.0170002,0.578961253,71.99304199,81.20000458,127.3526204,36.3643511,0,9.75487411,-0.36961617,0.442042988,9.789493656,-0.374893734,0.441313969,-0.185487556,1010.984131,0.000364,-0.000713,0.007901542,0.484476753,-0.02895745,-0.00581535,0.874299648,-0.045049795,0.038237962,-1.011157283,935.6666667,0.0651021,-0.024710728,0.046040669,-69.66666667,3270.055556,-50.15646923,13.53176442,16.26705837,1,1,1,1,0,99,2432,1
52,0,1.5,1.691369057,15.33600044,0.039333299,0,81.5,127.3526189,36.3643486,0,11.14619429,-2.010486656,2.316108775,9.262365675,-0.560072707,0.604370648,-0.093800354,1010.973193,-1.749398327,-0.230245503,0.194673597,0.223952801,-0.066521301,-0.033843099,0.93404085,-0.063517947,0.059010628,-0.489319215,1057.4,1.162546372,-0.391292381,2.042260724,-69.66666667,3270.055556,-43.42874885,17.92499956,5.752499796,1,1,1,1,0,99,2432,1
53,0,1.5,1.691369057,15.33600044,0.039333299,0,81.5,127.3526189,36.3643486,0,7.162261795,3.802390049,3.939286197,7.414719486,5.177189517,3.71126585,0.295406342,1010.926538,-1.113854119,-0.827977127,-0.446979264,-0.426706548,-0.306965252,0.149955352,0.815187159,-0.464812957,-0.557141195,0.8321936,380,-0.438161945,-1.306724572,0.338171065,-69.66666667,3270.055556,-29.84470513,-19.5635287,-31.83882287,1,1,1,1,0,99,2432,1
54,0,1.5,1.691369057,15.33600044,0.039333299,0,81.5,127.3526189,36.3643486,0,9.439278841,2.292967036,1.910481656,8.878433251,2.809354365,2.474938834,0.461341095,1010.906567,0.147338252,0.041009219,-0.141821524,-0.842405194,-0.192091101,-0.03726985,0.490772249,-0.272609278,-0.29508791,2.043595219,55.8,1.657932258,-0.39951677,-0.377793533,-69.66666667,3270.055556,-32.13176424,-34.90588166,-22.41882324,1,1,1,1,0,99,2432,1
55,0,1.5,1.691369057,15.33600044,0.039333299,0,81.5,127.3526189,36.3643486,0,3.030025164,6.087232449,5.963856865,2.467151045,6.402515984,5.989683008,0.195528221,1010.938452,0.313646316,-0.53793832,1.09930392,-0.69809449,-0.5656323,-0.166821749,0.3549952,-1.204459989,-0.717944232,1.640862149,41.33333333,-0.272917849,-0.118143177,-0.143103349,-69.66666667,3270.055556,6.626249865,-31.19999981,-29.95124936,1,1,1,1,0,99,2432,1
56,0,1.5,1.691369057,15.33600044,0.039333299,0,81.5,127.3526189,36.3643486,6,-0.38829507,7.506333155,6.076669567,0.0675494,6.84364121,6.817313123,0.419593239,1010.911597,-0.121717342,0.372831223,-0.383052216,-0.637686294,-0.6600364,-0.23751545,0.30357655,-1.561023438,-0.773871231,1.47905792,9.5,-0.427768064,0.654628944,-0.668815374,-69.66666667,3270.055556,22.19999964,-20.83764643,-30.6035292,1,1,1,1,0,99,2432,1
57,0,1.5,1.691369057,15.33600044,0.039333299,0,81.5,127.3526189,36.3643486,7.5,5.056858078,6.144906327,5.904132068,5.007884431,6.452026272,4.555553734,0.409288216,1010.912891,-0.298929344,0.682387191,-0.422422463,-0.735340446,-0.467609549,-0.0402062,0.455584954,-0.764420663,-0.722544536,1.705453485,10.4,-0.031743383,-0.251453078,1.393141747,-69.66666667,3270.055556,-9.479999685,-20.43529365,-44.0611754,1,1,1,1,0,99,2432,1
58,45,1.5,1.643494368,15.61699963,0.123437516,80.38082123,81.5,127.3526278,36.36435,9.5,8.719103813,3.501978998,0.936865641,8.618505883,4.386287951,1.058444431,0.508108902,1010.90105,-0.805061759,-0.474163994,-0.11543216,-0.886525002,-0.232419202,0.0400603,0.385721301,-0.124427897,-0.466565387,2.288905835,3.333333333,0.258746767,-0.708442414,-0.211350009,-69.66666667,3270.055556,-27.84374928,-30.61124933,-32.20499909,1,1,1,1,0,99,2432,1
59,45,1.5,1.643494368,15.61699963,0.123437516,80.38082123,81.5,127.3526278,36.36435,11,8.524322538,3.636480885,-1.942038576,8.970881653,3.742950904,-0.926335333,0.605344772,1010.889355,-0.000644,0.266632303,-0.232443388,-0.933093747,-0.171959349,0.1050448,0.289862803,0.101401241,-0.392914651,2.5574507,3.333333333,-0.189400077,-0.001297939,-0.953409865,-69.66666667,3270.055556,-29.37882266,-40.68352823,-18.93176427,1,1,1,1,0,99,2432,1
60,45,1.5,1.643494368,15.61699963,0.123437516,80.38082123,81.5,127.3526278,36.36435,11,9.565427154,2.976083606,-1.45706588,8.958662081,3.744202507,-0.790790316,0.513658333,1010.900391,1.264152646,0.746833461,0.138351815,-0.778271848,-0.12342245,0.149735151,0.566926196,0.091011436,-0.39350092,1.899300051,4,0.503152776,-0.700360918,-0.595494834,-69.66666667,3270.055556,-35.52705787,-26.7247053,-28.73294045,1,1,1,1,0,99,2432,1
61,45,1.5,1.643494368,15.61699963,0.123437516,80.38082123,81.5,127.3526278,36.36435,11,8.327710264,4.670948463,-1.263332068,7.864136243,5.476732802,-1.966048205,0.624897575,1010.887036,0.987369577,0.545522824,-0.338397956,-0.175917951,0.0467909,0.309140202,0.921509898,0.245521229,-0.592666841,0.455690591,3.5,0.475482059,-0.748279464,0.790818417,-69.66666667,3270.055556,-49.23374891,5.906249858,-5.403749866,1,1,1,1,0,99,2432,1
62,45,1.5,1.643494368,15.61699963,0.123437516,80.38082123,81.5,127.3526278,36.36435,11,8.37024397,5.282474448,0.049575586,7.944428277,5.660938954,-0.220757532,0.657133293,1010.883154,-0.032744825,-0.253030768,0.042843034,-0.0907096,-0.01763275,0.3031606,0.946848103,0.024280069,-0.617275873,0.196174161,3.5,0.417337132,-0.413646257,0.191427672,-69.66666667,3270.055556,-50.12823419,6.405882195,-4.976470508,1,1,1,1,0,99,2432,1
63,45,1.5,1.527252674,13.46000004,0.279879808,86.24194336,81.80000305,127.352644,36.3643508,11,8.12197873,5.371256232,0.791906397,8.09709208,5.498087525,0.511374594,0.683556175,1010.879956,-0.118082695,-0.037517511,-0.046526553,-0.1254369,-0.06552585,0.28738625,0.947069401,-0.063151178,-0.595573577,0.24386218,3.5,-0.025273371,-0.116476107,0.245216247,-69.66666667,3270.055556,-51.21882248,6.719999874,-10.70117625,1,1,1,1,0,99,2432,1
64,45,1.5,1.527252674,13.46000004,0.279879808,86.24194336,81.80000305,127.352644,36.3643508,11,8.41883362,5.157972168,-0.139712973,8.349045563,5.12006464,-0.290047595,0.69491787,1010.878613,-0.033294598,0.117153569,-0.072702128,-0.182897151,-0.03657755,0.269293746,0.944534451,0.034212097,-0.549482512,0.391749756,4.5,0.089456344,0.032294989,0.188410636,-69.66666667,3270.055556,-51.62624907,8.591249794,-13.57499963,1,1,1,1,0,99,2432,1
65,45,1.5,1.527252674,13.46000004,0.279879808,86.24194336,81.80000305,127.352644,36.3643508,11,8.456156086,4.808971307,-1.180518314,8.376165867,4.819042063,-1.577045757,0.669287682,1010.881641,-0.832000907,-0.283543484,0.137404974,-0.373024743,-0.0232491,0.268688901,0.87741915,0.185588902,-0.513854803,0.852480021,4.5,0.036836934,-0.011817181,0.449102902,-69.66666667,3270.055556,-48.77646974,4.415293992,-18.33882321,1,1,1,1,0,99,2432,1
66,45,1.5,1.527252674,13.46000004,0.279879808,86.24194336,81.80000305,127.352644,36.3643508,11,8.247827679,4.539245754,-2.06670813,8.112191701,5.166754794,-1.807093582,0.72160511,1010.875366,0.065665576,-0.099520331,0.123110724,-0.568155098,-0.086577,0.279166602,0.767666447,0.218547721,-0.555206977,1.336292541,3,0.191153383,-0.571542823,-0.233067995,-69.66666667,3270.055556,-41.65058764,-2.498823462,-38.71411727,1,1,1,1,0,99,2432,1
67,45,1.5,1.527252674,13.46000004,0.279879808,86.24194336,81.80000305,127.352644,36.3643508,11,8.001243844,5.605279025,-1.419382442,8.053932548,5.411467862,-1.377107108,0.788454628,1010.867383,-0.147190423,-0.035318394,-0.040509531,-0.550471908,-0.1067382,0.278840551,0.779289198,0.169288571,-0.5847828,1.280976945,4,-0.01587317,0.176530147,-0.092139646,-69.66666667,3270.055556,-39.5024991,-1.938749941,-44.37749887,1,1,1,1,0,99,2432,1
68,45,1.5,1.465711832,13.31599998,0.10993699,155.4617615,81.5,127.3526459,36.364346,11,8.229967594,5.112762619,-1.608389311,8.272441864,5.035452437,-1.539825022,0.714999199,1010.876221,0.008030434,-0.015068213,-0.0297583,-0.584314799,-0.097865051,0.26195595,0.761804101,0.184051269,-0.539245409,1.359617007,4,-0.083303738,0.078119969,-0.075592193,-69.66666667,3270.055556,-37.77176419,-5.361176407,-44.38588109,1,1,1,1,0,99,2432,1
69,45,1.5,1.465711832,13.31599998,0.10993699,155.4617615,81.5,127.3526459,36.364346,11,8.103722364,4.881327748,-2.083318383,8.283860302,4.770677447,-2.083297193,0.689105415,1010.879272,-0.11728857,0.183921144,-0.009111055,-0.583377653,-0.0662582,0.268814299,0.762740752,0.246624649,-0.508097719,1.370659667,3,-0.181275177,0.126811695,-0.015643823,-69.66666667,3270.055556,-39.257646,-5.343529224,-44.5023521,1,1,1,1,0,99,2432,1
70,45,1.5,1.465711832,13.31599998,0.10993699,155.4617615,81.5,127.3526459,36.364346,11,8.770791951,3.612538183,-3.495922906,8.398121452,3.578664517,-3.54419471,0.666381836,1010.881982,-0.41166453,-0.125756996,-0.024138335,-0.689756858,-0.0043497,0.266729252,0.668641648,0.399289678,-0.374018234,1.677702796,3,0.431724644,-0.02711693,0.074890518,-69.66666667,3270.055556,-39.36374927,-16.60499957,-33.62999892,1,1,1,1,0,99,2432,1
71,45,1.5,1.465711832,13.31599998,0.10993699,155.4617615,81.5,127.3526459,36.364346,11,8.572489738,3.334238922,-3.173963421,8.630818033,3.578841949,-2.886849767,0.63493824,1010.885815,-0.124496782,-0.291698538,0.158754713,-0.778482646,-0.0600399,0.232624902,0.576564804,0.321838928,-0.373813489,1.926696837,3,0.000423,-0.209618461,-0.25048824,-69.66666667,3270.055556,-35.02235199,-25.99058768,-27.37411701,1,1,1,1,0,99,2432,1
72,45,1.5,1.465711832,13.31599998,0.10993699,155.4617615,81.5,127.3526459,36.364346,11,8.428146653,4.004873529,-1.647560373,8.859320879,3.915805233,-1.229880911,0.673779869,1010.881201,0.34748825,-0.116594006,-0.013723088,-0.800226495,-0.1303872,0.1703565,0.554102248,0.13920531,-0.411497255,1.960090864,2.5,-0.313435769,0.284710491,-0.429590979,-69.66666667,3270.055556,-29.78470544,-28.49647006,-32.51999934,1,1,1,1,0,99,2432,1
73,45,1.5,1.400774717,13.41699982,0.159274071,116.8504562,81.5,127.3526541,36.3643428,11,8.451508326,3.953933607,1.662612578,8.442320013,4.205593836,2.178759008,0.763353157,1010.870435,0.97350297,-0.097076877,0.400504635,-0.581864649,-0.230413198,0.1143465,0.7543001,-0.254015949,-0.444207439,1.250655708,2,0.212025762,-0.166452241,-0.070121208,-69.66666667,3270.055556,-20.01374984,-5.508749936,-45.31499887,1,1,1,1,0,99,2432,1
74,45,1.5,1.400774717,13.41699982,0.159274071,116.8504562,81.5,127.3526541,36.3643428,11,7.076067924,4.966289366,4.905869077,7.208856583,4.88194418,4.491506433,1.229186058,1010.814624,0.337256261,0.161685644,0.086183926,-0.2169707,-0.3018491,0.202376851,0.904415351,-0.556877962,-0.521388942,0.319204144,8.833333333,-0.139520764,0.078993261,0.393293095,-69.66666667,3270.055556,-22.06235257,14.13882323,-41.08941089,1,1,1,1,0,99,2432,1
75,45,1.5,1.400774717,13.41699982,0.159274071,116.8504562,81.5,127.3526541,36.3643428,11,6.938907683,4.020735577,5.452212632,7.026520228,4.187610245,5.404011083,0.776300049,1010.868823,0.111572095,-0.017022982,0.042171081,-0.205214401,-0.3407433,0.158383951,0.902866405,-0.655513865,-0.441229735,0.295024609,46,0.034435606,-0.181868792,0.13346765,-69.66666667,3270.055556,-21.88235249,13.89882323,-38.18823444,1,1,1,1,0,99,2432,1
76,45,1.5,1.400774717,13.41699982,0.159274071,116.8504562,81.5,127.3526541,36.3643428,11,5.870057625,3.432404182,7.168740371,5.122249079,4.771884537,6.805919361,0.696239281,1010.878418,-0.97906672,-0.968903758,-1.241653858,-0.405375652,-0.47069795,0.054640699,0.738288403,-0.926767987,-0.508460261,0.744350416,51,0.785025442,-1.358247209,0.363137937,-69.66666667,3270.055556,-9.937499642,2.936249983,-41.57624888,1,1,1,1,0,99,2432,1
77,45,1.5,1.400774717,13.41699982,0.159274071,116.8504562,81.5,127.3526541,36.3643428,11,8.856563316,2.976365293,2.498073669,8.257415938,3.967397273,2.910451928,0.652905846,1010.883667,-1.444882008,-0.116624559,-0.764048868,-0.445673144,-0.162020451,-0.081527499,0.162435552,-0.343559563,-0.417546104,1.225533652,10.8,0.632406664,-0.955998141,-0.598899305,-69.66666667,3270.055556,-19.75058769,-38.57999891,-17.48823469,1,1,1,1,0,99,2432,1
78,45,1.5,1.362199187,12.70499992,0.194898039,224.7817993,81.5,127.3526455,36.3643363,11,9.589818776,2.150208397,-1.388679389,9.272956514,2.65530659,-1.440453169,0.26475544,1010.930127,-0.360260228,0.205790114,-0.020106625,0.962288848,0.15180995,-0.043134,0.21045665,0.153640171,-0.274264592,-2.689898789,3.666666667,0.26140492,-0.541760498,-0.098347226,-69.66666667,3270.055556,-27.15529341,-26.99294034,15.51176427,1,1,1,1,0,99,2432,1
79,45,1.5,1.362199187,12.70499992,0.194898039,224.7817993,81.5,127.3526455,36.3643363,11,9.262463345,3.125514493,-1.02334123,9.10137682,3.466180062,-1.056864476,0.593454742,1010.890771,-0.044839952,-0.087394655,0.130227306,0.919721407,0.18728705,0.01173365,0.342805699,0.115234704,-0.361466505,-2.407383692,3,0.143995619,-0.319145262,0.094006859,-69.66666667,3270.055556,-27.22124958,-24.99374938,17.08874971,1,1,1,1,0,99,2432,1
80,45,1.5,1.362199187,12.70499992,0.194898039,224.7817993,81.5,127.3526455,36.3643363,11,8.982755717,3.71859047,-0.812081684,8.956913471,3.909152997,-0.750839695,0.648942566,1010.884131,0.059587458,0.008877706,0.069629476,0.893098253,0.202026699,0.0472476,0.398421401,0.083497952,-0.410211851,-2.285151362,3,0.030356145,-0.186414814,-0.087515637,-72.16666667,3270.333333,-26.29058771,-25.43646981,18.96352903,1,1,1,1,0,99,2432,1
81,45,1.5,1.362199187,12.70499992,0.194898039,224.7817993,81.5,127.3526455,36.3643363,11,8.769031465,4.377781838,-0.550383917,8.890527916,4.04765718,-0.846241394,0.792153358,1010.866943,0.052104362,0.063153083,-0.056880717,0.907923052,0.212749799,0.0366942,0.3588595,0.094883435,-0.425529064,-2.368234658,3,-0.135862112,0.357090223,0.259524354,-72.16666667,3270.333333,-25.23176406,-28.8352936,15.70588202,1,1,1,1,0,99,2432,1
82,45,1.5,1.283827901,13.98200035,0.416561842,0.049224932,81.80000305,127.352646,36.3643525,11,6.989029065,6.103710651,-2.640040059,6.169658899,6.659238195,-2.53697896,0.802986908,1010.865674,-0.016159821,0.249344817,0.607099266,0.844332454,0.411304598,-0.0011903,0.312942797,0.44081151,-0.768620154,-2.211961967,5,0.795047021,-0.448728776,-0.062126058,-72.16666667,3270.333333,-11.2724998,-29.83499944,16.23749983,1,1,1,1,0,99,2432,1
83,45,1.5,1.283827901,13.98200035,0.416561842,0.049224932,81.80000305,127.352646,36.3643525,11,6.566369071,7.056209536,-1.44994464,6.212315941,6.868998289,-2.430287176,0.896258926,1010.854517,-0.035249369,-0.442154654,-0.460387754,0.846068248,0.415470649,0.00599705,0.314791299,0.402204821,-0.78538827,-2.238902223,4.6,0.317470074,0.142994618,0.877240817,-72.16666667,3270.333333,-10.42941156,-30.29646986,14.91529364,1,1,1,1,0,99,2432,1
84,45,1.5,1.283827901,13.98200035,0.416561842,0.049224932,81.80000305,127.352646,36.3643525,11,8.644379646,4.514554799,-1.199232405,8.409421039,4.930338073,-0.835562868,0.831787872,1010.862231,-0.216645803,0.029280605,0.0769904,0.8703426,0.254408451,0.0728682,0.411163396,0.099389675,-0.527887923,-2.230899096,4.6,0.269106865,-0.33512615,-0.245093068,-72.16666667,3270.333333,-27.53999934,-27.51529368,19.99764639,1,1,1,1,0,99,2432,1
85,45,1.5,1.283827901,13.98200035,0.416561842,0.049224932,81.80000305,127.352646,36.3643525,11,8.309542011,4.906291611,-1.513181687,8.350842047,4.805079317,-1.754379755,0.993758965,1010.842773,0.119543883,0.092566241,-0.139714041,0.844128701,0.267831649,0.0407256,0.461216351,0.206655487,-0.512529518,-2.087388289,2,-0.069284916,0.12461282,0.278429061,-72.16666667,3270.333333,-27.1499995,-22.85999954,24.47999978,1,1,1,1,0,99,2432,1
86,45,1.5,1.283827901,13.98200035,0.416561842,0.049224932,81.80000305,127.352646,36.3643525,11,8.657838513,4.64940001,-1.065170623,8.359593511,4.976774311,-1.0368727,0.884897423,1010.855859,-0.566396706,-0.395545625,0.006618724,0.691058207,0.228110651,0.1410745,0.660954553,0.123718623,-0.53352727,-1.581909788,3,0.327434063,-0.315959275,-0.011460546,-72.16666667,3270.333333,-32.304705,-16.02705857,19.25294068,1,1,1,1,0,99,2432,1
87,45,1.5,1.283827901,13.98200035,0.416561842,0.049224932,81.80000305,127.352646,36.3643525,11,8.519428313,3.600839652,-0.994821183,8.813708401,4.137760162,-1.135463196,0.835223007,1010.861816,0.013833653,0.119322145,-0.024260513,0.507404004,0.1635831,0.153769449,0.831338146,0.128032103,-0.435672136,-1.067770284,2,-0.50581429,-0.573882115,0.073961455,-72.16666667,3270.333333,-36.29294093,-5.149411622,17.00823503,1,1,1,1,0,99,2432,1
88,45,1.5,1.288466811,15.85599995,0.230812684,279.0314941,81.5,127.3526294,36.3643532,11,8.298134018,-0.004225176,-6.950720605,7.141463184,0.787712911,-6.258611071,0.64445076,1010.884595,0.18942686,0.397082569,-0.540105684,0.539150603,0.302905446,-0.169223152,0.753755051,0.714108718,-0.081625045,-1.225369847,2.5,0.92568655,-0.705708964,-0.525087714,-72.16666667,3270.333333,-25.26749933,1.848749962,27.27749979,1,1,1,1,0,99,2432,1
89,45,1.5,1.288466811,15.85599995,0.230812684,279.0314941,81.5,127.3526294,36.3643532,11,9.210211838,-0.102672134,-0.699128246,9.729541779,-0.069574924,-1.066113141,0.257621765,1010.931006,0.022935547,-0.139532007,0.083282312,0.530290897,0.0442877,-0.03212325,0.845222753,0.109270353,0.007094913,-1.121163237,3.5,-0.236242223,-0.074560418,0.316345987,-72.16666667,3270.333333,-48.10941113,3.35294112,10.31294088,1,1,1,1,0,99,2432,1
90,45,1.5,1.288466811,15.85599995,0.230812684,279.0314941,81.5,127.3526294,36.3643532,11,9.681699157,-0.140962931,-0.872862808,9.765505314,-0.148240331,-0.885026112,0.27426796,1010.929077,-0.000644,-0.004042095,0.001090394,0.504882103,0.03514135,-0.0293529,0.861579406,0.090380881,0.015116883,-1.060798594,3.5,-0.000934,0.009851246,0.002616134,-72.16666667,3270.333333,-49.62352842,2.975294064,8.81294099,1,1,1,1,0,99,2432,1
91,45,1.5,1.288466811,15.85599995,0.230812684,279.0314941,81.5,127.3526294,36.3643532,11,9.693996205,-0.186894274,-0.910810299,9.765261793,-0.15590449,-0.886221555,0.172276306,1010.941309,-0.000919,-0.002453846,-0.000651,0.598316802,0.031397,-0.0334397,0.798549348,0.090504526,0.015898507,-1.286691937,3.5,-0.038520288,0.019670253,-0.010434358,-72.16666667,3270.333333,-48.7574985,2.471249938,10.50374979,1,1,1,1,0,99,2432,1
92,45,1.5,1.288466811,15.85599995,0.230812684,279.0314941,81.5,127.3526294,36.3643532,11,9.756528967,-0.149994274,-0.889261835,9.765405989,-0.152845941,-0.885347861,0.190772057,1010.939111,-0.000858,0.000173,8.25E-05,0.562817699,0.0329338,-0.0319047,0.825228894,0.090414471,0.01558658,-1.197809094,3.5,0.023466825,0.009428881,0.004973012,-72.16666667,3270.333333,-48.13058741,3.271764629,10.21058795,1,1,1,1,0,99,2432,1
93,45,1.5,1.288466811,15.85599995,0.230812684,279.0314941,81.5,127.3526294,36.3643532,11,9.798120737,-0.147996112,-0.879746336,9.76558485,-0.153431005,-0.883269012,0.220101357,1010.935498,-0.000705,-0.000743,0.000235,0.550527206,0.03329685,-0.0313787,0.833475101,0.090201684,0.015646248,-1.168175739,3.5,0.025801945,0.002471979,-0.005964646,-72.16666667,3270.333333,-48.12352842,3.324705811,10.5035291,1,1,1,1,0,99,2432,1
94,45,1.5,1.442733049,15.36499977,0.230781734,305.4162598,81.5,127.3526189,36.3643595,11,9.784415245,-0.14731832,-0.878698847,9.765799189,-0.151441728,-0.881252161,0.262906265,1010.930396,-0.000797,-0.000469,0.000205,0.526450895,0.0341266,-0.0302699,0.848418456,0.089994864,0.015443373,-1.111413336,3.5,0.023193407,-0.003467853,-0.002953523,-72.16666667,3270.333333,-48.61124849,3.453749925,9.367499828,1,1,1,1,0,99,2432,1
95,45,1.5,1.442733049,15.36499977,0.230781734,305.4162598,81.5,127.3526189,36.3643595,11,9.786527914,-0.155064503,-0.887008394,9.765419912,-0.153887072,-0.885023972,0.302276039,1010.925732,-0.001163087,-0.00056,5.19E-05,0.494705349,0.03535065,-0.02919285,0.867770648,0.090381449,0.015692758,-1.036978424,3.5,0.026565504,-0.005092774,-0.003371689,-72.16666667,3270.333333,-48.6458812,3.268235221,8.879999778,1,1,1,1,0,99,2432,1
96,45,1.5,1.442733049,15.36499977,0.230781734,305.4162598,81.5,127.3526189,36.3643595,11,9.757717371,-0.155927146,-0.887228459,9.765088892,-0.155664834,-0.888363898,0.313637733,1010.924316,-0.00098,-0.000469,0.000296,0.537245402,0.033938,-0.0310825,0.841865501,0.090723726,0.015874062,-1.136733747,3.5,-0.004229069,-0.000322,-0.000271,-72.16666667,3270.333333,-48.10235147,3.282352854,10.60941158,1,1,1,1,0,99,2432,1
97,45,1.5,1.442733049,15.36499977,0.230781734,305.4162598,81.5,127.3526189,36.3643595,11,9.777795679,-0.154923663,-0.893909542,9.765133953,-0.154623611,-0.888049734,0.330812645,1010.922217,-0.000674,-0.000407,0.000327,0.578336349,0.03238775,-0.032676101,0.814490193,0.090691402,0.015767874,-1.235604787,3.5,0.012605476,0.000193,1.32E-05,-72.16666667,3270.333333,-48.34124923,3.416249946,10.67249972,1,1,1,1,0,99,2432,1
98,45,1.5,1.442733049,15.36499977,0.230781734,305.4162598,81.5,127.3526189,36.3643595,11,9.794696471,-0.155346182,-0.889543509,9.765505552,-0.152230503,-0.884370804,0.287743568,1010.92749,-0.001010371,-0.000652,0.000296,0.579104301,0.03227495,-0.0324979,0.813965049,0.090314319,0.015523815,-1.237453288,3.5,0.025761509,-0.000524,-0.006658578,-72.16666667,3270.333333,-48.21176327,3.381176374,10.59529383,1,1,1,1,0,99,2432,1
99,45,1.5,1.429127693,14.76299953,0.270227104,260.5214539,81.5,127.352601,36.3643523,11,9.798781002,-0.155487023,-0.887853433,9.765496016,-0.152738281,-0.884388873,0.283516121,1010.92793,-0.000949,-0.000316,0.000296,0.579088798,0.0322613,-0.03251895,0.81397565,0.090316243,0.0155756,-1.237417847,3.5,0.028524637,-0.004445859,-0.002570233,-72.16666667,3270.333333,-48.54352816,3.508235216,9.691764495,1,1,1,1,0,99,2432,1
100,45,1.5,1.429127693,14.76299953,0.270227104,260.5214539,81.5,127.352601,36.3643523,11,9.781809688,-0.155328578,-0.888425596,9.765473747,-0.154898565,-0.884254843,0.391320801,1010.915015,-0.001022283,-0.000377,0.000473,0.579728049,0.0321662,-0.0326301,0.813519746,0.090302835,0.015795915,-1.238999701,3.5,0.014540148,-0.00025,-0.002225414,-72.16666667,3270.333333,-48.57176343,3.49058816,8.999999832,1,1,1,1,0,99,2432,1
101,45,1.5,1.429127693,14.76299953,0.270227104,260.5214539,81.5,127.352601,36.3643523,11,9.807794627,-0.154782823,-0.895599611,9.764821339,-0.156868666,-0.891084749,0.387885857,1010.91543,-0.000531,-0.001201572,0.000285,0.579389402,0.0324055,-0.03290175,0.813740495,0.091002543,0.015996835,-1.238205808,3.5,-0.019883442,0.000283,0.000654,-72.16666667,3270.333333,-48.80624843,3.554999918,9.35624975,1,1,1,1,0,99,2432,1
102,45,1.5,1.505717516,15.07199955,0.261260867,269.0830078,81.5,127.3525904,36.364355,11,9.77497903,-0.163374045,-0.919683211,9.763714647,-0.174952342,-0.899633598,0.354064751,1010.919507,-0.001935832,0.005151427,-0.00273912,0.548820749,0.03344795,-0.03269465,0.833901596,0.091881078,0.017841143,-1.164963692,3,0.010313749,0.018845626,0.002857968,-72.16666667,3270.333333,-48.79058703,3.317646966,9.328235121,1,1,1,1,0,99,2432,1
103,45,1.5,1.505717516,15.07199955,0.261260867,269.0830078,81.5,127.3525904,36.364355,11,9.765049815,-0.177176337,-0.947384614,9.759937286,-0.174806093,-0.939728588,0.417214966,1010.911938,0.001698816,0.003043942,0.000162,0.520855501,0.0362748,-0.0326149,0.851890808,0.095988409,0.017826212,-1.098387945,3.666666667,-0.017273855,0.006488575,0.002489707,-72.16666667,3270.333333,-49.17529342,3.331764614,9.405882274,1,1,1,1,0,99,2432,1
104,45,1.5,1.505717516,15.07199955,0.261260867,269.0830078,81.5,127.3525904,36.364355,11,9.742585855,-0.172951145,-0.952639692,9.758639336,-0.173369198,-0.95353677,0.36067028,1010.91875,-0.000714,-0.003186884,0.001414764,0.535937303,0.03632205,-0.033584351,0.842646006,0.097402862,0.017679661,-1.133823872,3.666666667,-0.020046186,-0.003208569,0.000975,-72.16666667,3270.333333,-48.94874883,3.041249961,9.768749714,1,1,1,1,0,99,2432,1
105,45,1.5,1.505717516,15.07199955,0.261260867,269.0830078,81.5,127.3525904,36.364355,11,9.743430979,-0.169711831,-0.950104584,9.7590909,-0.171630865,-0.949246874,0.451036453,1010.907861,-0.000317,-0.000255,0.000162,0.539093703,0.03605545,-0.033528,0.840646598,0.096962937,0.017502371,-1.141295528,3.666666667,-0.010322142,0.00056,0.00159291,-72.16666667,3270.333333,-48.72705729,3.045882281,9.465882133,1,1,1,1,0,99,2432,1
106,45,1.5,1.505717516,15.07199955,0.261260867,269.0830078,81.5,127.3525904,36.364355,11,9.746194959,-0.173135997,-0.947534256,9.75910182,-0.171124872,-0.949225545,0.465040207,1010.906201,-0.000195,8.12E-05,9.77E-06,0.530897152,0.03639625,-0.0331548,0.845932153,0.096960665,0.017450766,-1.121762735,3.666666667,-0.008178186,-0.002220625,-0.001660693,-72.16666667,3270.333333,-48.91764585,3.257646967,9.635293848,1,1,1,1,0,99,2432,1
107,45,1.5,1.546777844,15.56499958,0.155153602,137.321228,81.5,127.3525978,36.3643494,11,9.724839996,-0.176894653,-0.932640461,9.758975506,-0.171799985,-0.950401726,0.494369316,1010.902637,-0.000836,0.001333519,-0.000479,0.527001449,0.0365808,-0.0330477,0.848333204,0.097081305,0.017519619,-1.112602156,3.5,-0.033311558,-0.004298925,0.012324852,-72.16666667,3270.333333,-48.9037497,3.28124994,9.581249714,1,1,1,1,0,99,2432,1
108,45,1.5,1.546777844,15.56499958,0.155153602,137.321228,81.5,127.3525978,36.3643494,11,9.91412864,-0.17097939,-1.117281304,9.751034832,-0.181318108,-1.02659052,0.362520027,1010.918481,0.000813,0.012084748,0.008714604,0.53392415,0.03934195,-0.0358464,0.843692449,0.104893707,0.018490387,-1.129404902,3.5,0.083448982,-0.032011776,0.001840898,-72.16666667,3270.333333,-48.78352805,3.169411687,9.80470562,1,1,1,1,0,99,2432,1
109,45,1.5,1.546777844,15.56499958,0.155153602,137.321228,81.5,127.3525978,36.3643494,11,9.917235941,0.4676318,-3.198751157,9.085918474,0.119886773,-2.99951227,0.443109322,1010.908813,0.007074434,0.613787023,0.208253733,0.398315503,0.14780915,-0.0429913,0.886094698,0.320389695,-0.012310241,-0.831274602,2.5,0.866363549,0.439415802,-0.161050197,-72.16666667,3270.333333,-42.6105874,3.021176426,16.81764664,1,1,1,1,0,99,2432,1
110,45,1.5,1.546777844,15.56499958,0.155153602,137.321228,81.5,127.3525978,36.3643494,11,7.215076818,3.673240069,-4.974176373,6.026772529,5.356652629,-4.873547173,0.679064369,1010.880493,-0.417537997,-0.646886151,1.47259209,0.039357249,0.279342847,0.299751104,0.891999802,0.710239361,-0.596446195,0.175982858,3,1.315271223,-1.654505235,0.262173855,-72.16666667,3270.333333,-22.8937493,-7.541249797,23.03624952,1,1,1,1,0,99,2432,1
111,45,1.5,1.546777844,15.56499958,0.155153602,137.321228,81.5,127.3525978,36.3643494,11,5.579223626,5.640770688,-5.391484387,6.027857733,6.271490932,-4.230378973,1.113982391,1010.828345,-0.768144121,-1.232950207,0.173190069,-0.458460905,0.03130465,0.429321553,0.767008448,0.629755203,-0.698126611,1.319509315,2.5,-0.521504545,-0.639438248,-1.182836938,-72.16666667,3270.333333,-44.65058675,-3.119999925,3.11999998,1,1,1,1,0,99,2432,1
112,45,1.5,1.546777844,15.56499958,0.155153602,137.321228,81.5,127.3525978,36.3643494,11,7.638933778,5.374398738,-3.809740126,6.556214547,5.923481297,-4.191378462,1.109490585,1010.828931,-0.479265931,-0.589586984,0.28171029,-0.453197202,0.040465199,0.4005889,0.790096948,0.568890125,-0.648646981,1.236719555,2.5,1.143414176,-0.554320049,0.311575854,-72.16666667,3270.333333,-50.81294004,-3.529411661,-5.749411645,1,1,1,1,0,99,2432,1
113,45,1.5,1.546777844,15.56499958,0.155153602,137.321228,81.5,127.3525978,36.3643494,11,7.203809542,5.954420595,-1.913870594,6.451563215,6.947942829,-1.431011407,1.12349472,1010.827271,-0.589313306,-1.466209157,0.546612005,-0.738103351,-0.26820365,0.280682604,0.525424452,0.193695111,-0.794252828,1.978989178,2,0.918014622,-0.924665713,-0.305675822,-72.16666667,3270.333333,-28.3349991,-31.67624974,-29.61749923,1,1,1,1,0,99,2432,1
114,45,1.5,1.492522717,14.30900002,0.571188509,87.53902435,81.80000305,127.3526398,36.3643511,17,3.44381223,8.540941575,0.591949246,3.645880401,8.954223776,1.566707462,1.378474617,1010.796704,-0.115281878,0.099896632,0.003369536,-0.745108256,-0.537823355,0.153788398,0.361200796,-0.400909878,-1.152062833,1.977392209,10,-0.331725216,-0.391100001,-0.991004071,-72.16666667,3270.333333,7.369411623,-39.89646979,-31.95882292,1,1,1,1,0,99,2432,1
115,45,1.5,1.492522717,14.30900002,0.571188509,87.53902435,81.80000305,127.3526398,36.3643511,18.5,5.665602408,8.207723707,-0.451919373,5.177335787,8.227396178,-0.648253918,1.321665382,1010.803491,-0.284277753,-0.058317469,-0.278422611,-0.783515051,-0.415555753,0.247628304,0.384686899,0.117547859,-1.002033794,2.289153707,4.2,0.428140402,-0.095481205,0.149167342,-72.16666667,3270.333333,-7.125882205,-42.4870583,-25.55999947,1,1,1,1,0,99,2432,1
116,45,1.5,1.492522717,14.30900002,0.571188509,87.53902435,81.80000305,127.3526398,36.3643511,18.5,7.759844668,6.024699632,-1.396284727,7.015045214,6.73293736,-1.066172677,1.122966576,1010.827295,0.463329678,0.503403666,-0.273596776,-0.839549845,-0.312362154,0.20103325,0.378776599,0.14873206,-0.758573899,2.35386306,4.2,0.729715443,-0.703794241,-0.288867155,-72.16666667,3270.333333,-16.77749956,-41.19374919,-17.19374973,1,1,1,1,0,99,2432,1
117,45,1.5,1.492522717,14.30900002,0.571188509,87.53902435,81.80000305,127.3526398,36.3643511,18.5,8.26799432,4.674469443,-2.664546192,8.096518159,4.671310782,-2.920958579,1.260364723,1010.81084,0.985619472,0.692313733,-0.43321585,-0.577881998,-0.02872895,0.287722999,0.747716159,0.345595421,-0.497059458,1.404301989,3.5,0.130928421,-0.031325936,0.286059141,-72.16666667,3270.333333,-43.16823421,-14.1705879,-22.88470538,1,1,1,1,0,99,2432,1
118,45,1.5,1.492522717,14.30900002,0.571188509,87.53902435,81.80000305,127.3526398,36.3643511,18.5,7.07792525,6.399896592,-3.213715352,6.84896934,6.303737736,-2.7844643,1.218616676,1010.81582,0.282788453,0.09601763,0.381128605,-0.304648051,0.03149915,0.382345298,0.868241802,0.389375842,-0.705969518,0.821188295,3,0.167692363,0.075208926,-0.330247802,-72.16666667,3270.333333,-51.98117537,4.348235221,-12.4199998,1,1,1,1,0,99,2432,1
119,45,1.5,1.452254415,13.31900024,0.164470002,127.3825836,81.5,127.3526461,36.3643463,18.5,3.530991989,8.40235525,-3.198751141,3.21739099,8.844604015,-2.692163837,1.328799629,1010.802637,0.002584574,0.235325454,0.071969705,-0.2330622,0.0032701,0.57853325,0.780292103,0.702069871,-1.126344329,1.037157017,3,0.236110997,-0.414003301,-0.473905456,-72.16666667,3270.333333,-62.7524991,-4.158749863,-16.12499976,1,1,1,1,0,99,2432,1
120,45,1.5,1.452254415,13.31900024,0.164470002,127.3825836,81.5,127.3526461,36.3643463,18.5,3.218891228,8.554462208,-3.439727867,3.259023356,8.61860199,-3.318876457,1.407803726,1010.793164,-0.111922118,-0.114455988,0.087791116,-0.221988749,0.0527231,0.575249946,0.784663349,0.791835451,-1.07399469,1.039615908,3,-0.133297616,-0.076427984,-0.136301517,-69.92307692,3597.769231,-65.29764579,-0.79764701,-9.709411621,1,1,1,1,0,99,2432,1
121,45,1.5,1.452254415,13.31900024,0.164470002,127.3825836,81.5,127.3526461,36.3643463,18.5,1.858705462,8.97538805,-3.099089459,2.344047576,8.735372543,-3.750204349,1.442945671,1010.78894,0.100842248,0.252063157,0.033271392,-0.233811001,0.06437955,0.613058195,0.751011401,1.01750299,-1.100403118,1.264870453,3,-0.398938721,0.28769145,0.76526196,-69.92307692,3597.769231,-63.34235158,-8.382352773,-13.22470558,1,1,1,1,0,99,2432,1
122,0,1.5,1.424545288,13.21700001,0.093305245,0,81.5,127.3526445,36.3643436,18.5,0.499558397,8.332217104,-5.543309576,0.311564789,8.640127134,-4.491424608,1.529348373,1010.778491,-0.13229447,0.125736225,0.13559132,-0.219212651,0.1153082,0.685048291,0.682457697,1.487101555,-1.078985262,1.638792402,2.666666667,0.218527657,-0.285185528,-1.042941582,-69.92307692,3597.769231,-53.43374896,-17.08124992,-11.62874979,1,1,1,1,0,99,2432,1
123,0,1.5,1.424545288,13.21700001,0.093305245,0,81.5,127.3526445,36.3643436,18.5,2.811582859,7.192542385,-5.281770243,2.593050263,7.325946856,-5.424822998,1.491827965,1010.783081,-0.455258934,-0.481983062,-0.383766315,-0.348708551,0.1136615,0.5889395,0.706275252,1.180116358,-0.869882548,1.545956677,2,0.041609725,-0.071773028,0.100075531,-69.92307692,3597.769231,-52.83882231,-9.342352699,-16.07647021,1,1,1,1,0,99,2432,1
124,0,1.5,1.424545288,13.21700001,0.093305245,0,81.5,127.3526445,36.3643436,18.5,7.10381338,3.401665941,-6.3988491,7.078590512,3.768887699,-5.586479521,1.24873848,1010.812231,-0.59258144,-0.608920859,0.277831286,-0.671136349,0.0634872,0.363877699,0.63467555,0.668710941,-0.395027672,1.764069313,2,-0.194930744,-0.374524307,-0.693583596,-69.92307692,3597.769231,-41.00823459,-14.89411724,-24.52235233,1,1,1,1,0,99,2432,1
125,0,1.5,1.424545288,13.21700001,0.093305245,0,81.5,127.3526445,36.3643436,18.5,8.864872904,3.337900765,-2.534973676,8.854984999,3.619303155,-1.985153678,1.205141258,1010.817505,-0.069161533,-0.200740702,0.023222648,-0.856729752,-0.115001201,0.1799217,0.463294551,0.220113241,-0.378159255,2.191519058,2.5,-0.041659474,-0.327055573,-0.677040502,-69.92307692,3597.769231,-27.83624959,-32.25749934,-26.16749942,1,1,1,1,0,99,2432,1
126,0,1.5,1.424545288,13.21700001,0.093305245,0,81.5,127.3526445,36.3643436,18.5,8.707273371,3.499725566,-2.962985467,8.663564301,3.606309414,-2.840996385,1.261685944,1010.810718,0.367912528,0.208111405,-0.136824043,-0.757296205,-0.0546476,0.234140048,0.604618549,0.316826099,-0.376603615,1.854869843,3,0.010175014,-0.093668866,-0.126707268,-69.92307692,3597.769231,-35.00823459,-22.54235256,-30.28941098,1,1,1,1,0,99,2432,1
127,0,1.5,1.424545288,13.21700001,0.093305245,0,81.5,127.3526445,36.3643436,18.5,8.212063313,3.876031607,-3.814379036,8.412090874,3.700453734,-3.407544935,1.295242882,1010.806714,0.094733592,0.130623147,-0.04852347,-0.713207102,-0.02351495,0.264824348,0.647864145,0.384931804,-0.386961357,1.743084598,3,-0.240071774,0.156722975,-0.411802185,-69.92307692,3597.769231,-37.69058789,-17.61176418,-29.4847052,1,1,1,1,0,99,2432,1
128,0,1.5,1.424545288,13.21700001,0.093305245,0,81.5,127.3526445,36.3643436,18.5,7.997863798,2.865665267,-5.044737002,7.818434381,3.064629459,-4.944705379,1.270933723,1010.80957,0.090121559,0.30777407,-0.21632816,-0.637191001,0.08686975,0.299508949,0.701325798,0.562097801,-0.318409509,1.564497793,1.5,0.207533932,-0.223463255,0.007710731,-69.92307692,3597.769231,-41.94374919,-7.717499778,-26.08874953,1,1,1,1,0,99,2432,1
129,0,1.5,1.388116479,12.49800014,0.061288614,0,81.5,127.3526486,36.3643417,18.5,6.962410254,4.513771366,-5.102199625,7.00809052,4.577091658,-4.773113537,1.323514748,1010.803223,0.491490567,0.213364847,0.365215562,-0.533441651,0.073344151,0.363068852,0.7526389,0.600166273,-0.494476444,1.388126266,2,0.054182148,-0.137747049,-0.370387292,-69.92307692,3597.769231,-45.23999943,-2.378823446,-25.52117595,1,1,1,1,0,99,2432,1
130,0,1.5,1.388116479,12.49800014,0.061288614,0,81.5,127.3526486,36.3643417,18.5,6.294847801,4.991614074,-5.11581704,6.329869509,5.29726243,-4.986074138,1.381116676,1010.796411,0.461619274,0.254201193,-0.744390624,-0.3329216,0.1410848,0.382202601,0.836573347,0.679602101,-0.577919558,0.986264132,1.5,-0.101402986,-0.312861168,-0.073627138,-69.92307692,3597.769231,-48.31411653,13.11176447,-14.50235249,1,1,1,1,0,99,2432,1
131,0,1.5,1.388116479,12.49800014,0.061288614,0,81.5,127.3526486,36.3643417,18.5,8.014060273,3.894217547,-4.42180304,7.706107092,3.844611108,-4.643092895,1.442945671,1010.788965,-0.257124788,-0.091517999,-0.03016697,-0.169857698,0.210050002,0.24941065,0.92869305,0.542172515,-0.403804265,0.475041051,1.5,0.204936004,0.066197348,0.192854321,-69.92307692,3597.769231,-40.59749866,33.70124912,0.21375002,1,1,1,1,0,99,2432,1
132,0,1.5,1.388116479,12.49800014,0.061288614,0,81.5,127.3526486,36.3643417,18.5,7.995751128,3.195652681,-4.820661138,8.146729755,3.3178985,-4.325394702,1.388514709,1010.795459,0.462321749,0.174971963,-0.181356122,-0.18070995,0.191688199,0.21662335,0.935636196,0.488002911,-0.345239177,0.468336355,1.5,-0.071798539,-0.155899489,-0.523849797,-69.92307692,3597.769231,-38.62235215,32.11764672,-2.735294051,1,1,1,1,0,99,2432,1
133,0,1.5,1.388116479,12.49800014,0.061288614,0,81.5,127.3526486,36.3643417,18.5,8.419916272,3.353780404,-3.807046577,8.122405338,3.434373045,-4.286092687,1.331177902,1010.802344,0.204567162,0.069994773,-0.065474979,0.03138755,0.234389549,0.17528395,0.954837799,0.485547011,-0.357810886,0.023700364,1.5,0.256359363,-0.023608911,0.520496988,-69.92307692,3597.769231,-31.59882265,32.42470506,21.09882315,1,1,1,1,0,99,2432,1
134,45,1.5,1.330510497,14.10599995,0.18555887,324.0917358,81.5,127.3526421,36.3643488,18.5,8.462212282,3.732111033,-3.441558747,8.220211554,3.777814817,-3.762404466,1.399612236,1010.794116,-0.319616301,-0.287666823,0.133514373,0.0840442,0.217043999,0.181704751,0.9540288,0.429246709,-0.395498075,-0.088696919,1.5,0.240796518,-0.016409111,0.355231702,-69.92307692,3597.769231,-32.71499944,29.40374923,22.13999945,1,1,1,1,0,99,2432,1
135,45,1.5,1.330510497,14.10599995,0.18555887,324.0917358,81.5,127.3526421,36.3643488,18.5,7.686889845,4.200825579,-4.197445407,7.80604651,4.197049999,-4.115809011,1.366319847,1010.798169,-0.525905491,-0.07157325,0.43741983,-0.168594251,0.174299949,0.263783399,0.928002948,0.486557855,-0.442625913,0.475377664,3,-0.135149121,0.021422791,-0.037300086,-69.92307692,3597.769231,-42.34941124,28.00235243,-7.355293984,1,1,1,1,0,99,2432,1
136,45,1.5,1.330510497,14.10599995,0.18555887,324.0917358,81.5,127.3526421,36.3643488,18.5,6.569740474,5.437098831,-5.005830027,6.846291041,5.382665849,-4.463302398,1.770852089,1010.749634,0.233094568,0.138197875,0.046649344,-0.322778849,0.127586699,0.36609185,0.862223604,0.577965119,-0.58229394,0.893977588,10.8,-0.273288429,0.019656157,-0.467107987,-69.92307692,3597.769231,-41.72470519,7.422352742,-21.16941127,1,1,1,1,0,99,2432,1
137,45,1.5,1.330510497,14.10599995,0.18555887,324.0917358,81.5,127.3526421,36.3643488,18.5,6.093992668,6.323420595,-5.085157997,5.063586676,6.868386984,-4.732638121,1.472010803,1010.785474,0.811034168,1.202447298,-0.543232692,-0.074528849,0.246788852,0.418344049,0.85540005,0.757781523,-0.779189065,0.49420906,78.6,0.961007285,-0.551930928,-0.380814576,-69.92307692,3597.769231,-34.70624912,5.6474999,-0.764999994,1,1,1,1,0,99,2432,1
