Time,location_bearingAccuracy,location_speedAccuracy,location_verticalAccuracy,location_horizontalAccuracy,location_speed,location_bearing,location_altitude,location_longitude,location_latitude,pedometer_steps,totalAcceleration_z,totalAcceleration_y,totalAcceleration_x,gravity_z,gravity_y,gravity_x,barometer_relativeAltitude,barometer_pressure,gyroscope_z,gyroscope_y,gyroscope_x,orientation_qz,orientation_qy,orientation_qx,orientation_qw,orientation_roll,orientation_pitch,orientation_yaw,light_lux,accelerometer_z,accelerometer_y,accelerometer_x,wiFi_level,wiFi_frequency,magnetometer_z,magnetometer_y,magnetometer_x,network_type,network_isConnected,network_isInternetReachable,network_isWifiEnabled,network_isConnectionExpensive,network_strength,network_frequency,label
0,45,1.5,1.333717346,14.06200027,0,0,81.5,127.3526352,36.3643517,0,8.703624162,5.386030024,-1.145551679,-9.778250482,0.429388653,0.220709636,-3.755048616,1012.637312,-0.352987965,-0.099651764,0.120852077,0.008626555,-0.129362611,0.990233007,0.023994056,0.022531258,-0.043812115,-2.881844441,537.3333333,18.65622118,4.295712656,-1.107655416,-68.05263158,3228.315789,-962.358436,-1277.67688,-227.6492263,1,1,1,1,0,-99,2432,1
1,45,1.5,1.333717346,14.06200027,0,0,81.5,127.3526352,36.3643517,0,8.461486936,4.050274932,-0.789272679,-7.471861684,-2.06870593,-4.651711515,-7.164789915,1013.046753,-1.250748423,-1.396887528,-0.169621397,0.003515151,0.01282465,-0.136983755,0.05431815,2.569650972,0.215737421,2.115488267,376,15.85816822,6.130712795,3.860283989,-68.05263158,3228.315789,-953.114975,-1296.382477,-235.8412466,1,1,1,1,0,-99,2432,1
2,45,1.5,1.333717346,14.06200027,0,0,81.5,127.3526352,36.3643517,0,9.379811025,1.111542091,2.005085426,-3.43325119,-7.869554114,-4.560590887,-7.528630972,1013.090503,-0.612669131,-0.045500927,-0.41610552,-0.2268913,0.294097349,0.1269912,0.049365749,2.230490464,0.936788455,1.365054983,912,12.83377271,8.976068258,6.498397171,-68.05263158,3228.315789,-957.5046925,-1298.587029,-227.0717585,1,1,1,1,0,99,2432,1
3,45,1.5,1.333717346,14.06200027,0,0,81.5,127.3526352,36.3643517,0,9.489827847,0.275102172,0.079729348,1.360175598,-4.653686311,-4.007593788,-7.652289438,1013.105298,0.416547184,0.133604774,-0.018676593,-0.716640747,0.448251501,0.309013597,0.0801523,1.378658572,0.521640095,2.111580235,822,9.343908763,4.924837918,4.143947724,-68.05263158,3228.315789,-963.8117424,-1293.225859,-215.3999957,1,1,1,1,0,99,2432,1
4,45,1.5,1.333717346,14.06200027,0,0,81.5,127.3526352,36.3643517,0,9.820956182,0.327776221,-0.070511393,9.800861406,0.324121534,-0.066173522,-7.715199601,1013.112882,-0.001834428,0.004009719,-0.001511281,-0.991763857,-0.01596655,0.00544555,0.126918249,0.006751083,-0.033057654,2.887133455,822,0.017221594,-0.004844985,-0.00625329,-68.05263158,3228.315789,-963.4687309,-1293.993729,-215.7149963,1,1,1,1,0,99,2432,1
5,45,1.5,1.333717346,14.06200027,0,0,81.5,127.3526352,36.3643517,0,9.802041292,0.377217998,0.00706311,9.799584007,0.36491103,-0.013278553,-7.68003335,1013.108643,0.002716518,-0.015904487,0.009667553,-0.991737852,-0.0183732,0.00303365,0.1268653,0.001354163,-0.037219554,2.887142265,822,0.008203697,0.01182811,0.018186817,-68.05263158,3228.315789,-963.6458561,-1293.942325,-214.4964662,1,1,1,1,0,99,2432,1
6,45,1.5,1.333717346,14.06200027,0,0,81.5,127.3526352,36.3643517,0,9.833166885,0.408942135,0.059976584,9.798025656,0.406191047,0.062730818,-7.640927696,1013.103931,-0.000765,-0.000236,0.000779,-0.991653848,-0.0209532,-0.000537,0.1272074,-0.006402302,-0.041431838,2.886297202,822,0.005811501,-0.015684825,-0.009697631,-68.05263158,3228.315789,-964.4682043,-1291.295267,-215.2023459,1,1,1,1,0,99,2432,1
7,45,1.5,1.333717346,14.06200027,0,0,81.5,127.3526352,36.3643517,0,9.826462936,0.409540699,0.070511393,9.798047304,0.402608211,0.078987382,-7.653874779,1013.105493,-0.001712255,-0.006924768,0.003039665,-0.991740298,-0.02087645,-0.0013972,0.1265366,-0.008061418,-0.04106619,2.887616682,822,0.086476803,-0.00049,0.020853876,-68.05263158,3228.315789,-960.7424698,-1290.997475,-215.5274954,1,1,1,1,0,99,2432,1
8,0,1.5,1.757469773,14.12800026,0.071631163,0,81.5,127.35263,36.3643554,0,9.884883308,0.421272647,0.080447633,9.797555447,0.41194707,0.091320376,-7.692452002,1013.110132,-0.001254106,0.011156843,-0.005176472,-0.991809952,-0.02142765,-0.00197465,0.12589005,-0.009320496,-0.042019295,2.888887203,822,0.021126175,0.002382189,-0.018893562,-68.05263158,3228.315789,-960.8540937,-1293.698795,-216.5541122,1,1,1,1,0,99,2432,1
9,0,1.5,1.757469773,14.12800026,0.071631163,0,81.5,127.35263,36.3643554,0,9.833406448,0.399365036,0.066680554,9.797885609,0.40747506,0.072506751,-7.708305645,1013.112036,-0.000552,-0.0017935,-0.001389108,-0.991876799,-0.02107985,-0.0010614,0.125429451,-0.007400181,-0.041562939,2.889859676,822,0.043900585,-0.014933708,-0.00175593,-68.05263158,3228.315789,-961.2035092,-1293.914091,-216.7623515,1,1,1,1,0,99,2432,1
10,0,1.5,1.757469773,14.12800026,0.071631163,0,81.5,127.35263,36.3643554,0,9.752001047,0.408343568,0.056145744,9.797917557,0.406751031,0.066211876,-7.657309818,1013.105835,-0.000521,-0.003229034,0.001329243,-0.991945755,-0.0210026,-0.000759,0.12488975,-0.006757883,-0.041489131,2.890959668,822,0.030341101,-0.022350208,0.021179154,-68.05263158,3228.315789,-960.6862183,-1294.188728,-215.7562437,1,1,1,1,0,99,2432,1
11,0,1.5,1.757469773,14.12800026,0.071631163,0,81.5,127.35263,36.3643554,0,9.855553341,0.409181565,0.058779447,9.797919607,0.410176271,0.05313889,-7.729972219,1013.114697,-0.001315193,0.001444085,-0.002580295,-0.991966894,-0.0210925,-7.93E-05,0.124721101,-0.005423442,-0.041838557,2.891329193,822,0.073795033,-0.003269264,-0.007288528,-68.05263158,3228.315789,-960.5929242,-1294.048211,-214.856466,1,1,1,1,0,99,2432,1
12,0,1.5,1.757469773,14.12800026,0.071631163,0,81.5,127.35263,36.3643554,0,9.875306177,0.410737839,0.07039168,9.798015976,0.405872957,0.065912276,-7.630887079,1013.102759,-0.001376279,0.0025131,-0.001389108,-0.992052048,-0.02095545,-0.000767,0.1240624,-0.006727029,-0.04139938,2.892631888,822,0.019229126,0.010730854,-0.000429,-68.05263158,3228.315789,-960.5893878,-1293.984691,-215.1494078,1,1,1,1,0,99,2432,1
13,45,1.5,1.867932558,16.77199936,0.10544806,283.5918579,81.5,127.3526239,36.3643565,0,9.840828609,0.406428148,0.080567347,9.797807455,0.408709587,0.078342212,-7.648590231,1013.104883,-0.002231491,-0.002893058,0.000657,-0.9921783,-0.02117625,-0.00140045,0.123005201,-0.007995738,-0.041688882,2.894734442,822,0.087195539,0.001190262,-0.026147022,-68.05263158,3228.315789,-960.6337242,-1293.929977,-215.7674932,1,1,1,1,0,99,2432,1
14,45,1.5,1.867932558,16.77199936,0.10544806,283.5918579,81.5,127.3526239,36.3643565,0,9.833166838,0.396252482,0.078651927,9.798179102,0.399516287,0.071824279,-7.601293659,1013.099146,-0.001437366,0.020136562,-0.011529471,-0.992284954,-0.02066905,-0.0011447,0.12221955,-0.007330466,-0.040750703,2.896334815,822,0.050670385,-0.017629455,-0.029325902,-68.05263158,3228.315789,-959.7388126,-1294.627018,-221.4988179,1,1,1,1,0,99,2432,1
15,45,1.5,1.867932558,16.77199936,0.10544806,283.5918579,81.5,127.3526239,36.3643565,0,9.821075869,0.381886835,0.05087834,9.798906422,0.385504454,0.055962796,-7.704870701,1013.111646,-0.001467909,0.001718975,-0.001022588,-0.992403093,-0.0198603,-0.000445,0.12140905,-0.005711074,-0.03932065,2.898012948,822,0.023605967,-0.001223347,-0.000894,-68.05263158,3228.315789,-959.7564482,-1295.879969,-223.8847019,1,1,1,1,0,99,2432,1
16,45,1.5,1.867932558,16.77199936,0.10544806,283.5918579,81.5,127.3526239,36.3643565,0,9.820956182,0.391703355,0.034118416,9.798746443,0.391137211,0.040378537,-7.643041468,1013.104248,0.000914,-0.002434909,0.004291939,-0.992412755,-0.020049,0.000376,0.12129625,-0.004120803,-0.039895535,2.89826889,822,0.01670289,0.001164714,-0.003386991,-68.05263158,3228.315789,-959.7074738,-1295.56498,-223.3724947,1,1,1,1,0,99,2432,1
17,45,1.5,1.867932558,16.77199936,0.10544806,283.5918579,81.5,127.3526239,36.3643565,0,9.870038748,0.405709867,0.054828894,9.79821353,0.403027864,0.054131018,-7.681354475,1013.108789,-0.001528996,0.000864,-0.001389108,-0.992435244,-0.02073615,-0.000253,0.1210005,-0.005524529,-0.041108987,2.898830748,822,0.059015894,-0.003782541,-0.005048384,-68.05263158,3228.315789,-959.3293852,-1295.802332,-223.6094082,1,1,1,1,0,99,2432,1
18,45,1.5,1.765118957,14.80599976,0.15959008,280.8887939,81.5,127.3526149,36.3643579,0,9.845856571,0.386196525,0.037590115,9.798864508,0.388326903,0.041991089,-7.723630905,1013.11394,-0.001651169,-0.000724,4.64E-05,-0.99255605,-0.019917,0.000254,0.1201427,-0.004285291,-0.039608688,2.900591826,822,0.046992111,0.000384,-0.003682693,-68.05263158,3228.315789,-960.007037,-1295.781149,-224.5199953,1,1,1,1,0,99,2432,1
19,45,1.5,1.765118957,14.80599976,0.15959008,280.8887939,81.5,127.3526149,36.3643579,0,9.842624235,0.384161392,0.039026679,9.799145937,0.381530845,0.039359875,-7.742655182,1013.116187,-0.001406823,-0.003656639,0.001695762,-0.992654499,-0.01955685,0.00033,0.11938675,-0.004016644,-0.03891514,2.902123594,822,0.039408159,0.000835,-0.001410619,-68.05263158,3228.315789,-960.067482,-1295.72998,-224.8837423,1,1,1,1,0,99,2432,1
20,45,1.5,1.765118957,14.80599976,0.15959008,280.8887939,81.5,127.3526149,36.3643579,0,9.7685215,0.410737847,0.075659084,9.797995186,0.402965057,0.083341965,-7.636964321,1013.103467,-0.002078774,-0.006619336,-0.000564,-0.992753688,-0.0209083,-0.0017886,0.118312,-0.008505855,-0.041102582,2.90418489,822,-0.003256416,-0.01221941,0.022484982,-68.05263158,3228.315789,-959.9646822,-1295.872918,-224.4494045,1,1,1,1,0,99,2432,1
21,45,1.5,1.765118957,14.80599976,0.15959008,280.8887939,81.5,127.3526149,36.3643579,0,9.810062265,0.40199874,0.092658435,9.797962379,0.400920478,0.096119954,-7.667878819,1013.107202,-0.002781269,0.00373483,-0.002641381,-0.992877594,-0.02087985,-0.00246975,0.1172593,-0.009809954,-0.040893939,2.906279004,825,-0.006096697,0.000599,-0.006813504,-68.05263158,3228.315789,-959.5446741,-1295.858793,-223.7894063,1,1,1,1,0,99,2432,1
22,45,1.5,1.765118957,14.80599976,0.15959008,280.8887939,81.5,127.3526149,36.3643579,0,9.850525427,0.368838032,0.059976584,9.799600267,0.366746797,0.060281647,-7.742655277,1013.116187,-0.002048231,0.000161,4.64E-05,-0.993082795,-0.01893255,-0.000886,0.11587055,-0.006151375,-0.037406498,2.909172285,825,0.045897341,0.000535,-0.005572467,-68.05263158,3228.315789,-959.7487259,-1295.853737,-223.7737446,1,1,1,1,0,99,2432,1
23,45,1.5,1.714758039,14.1079998,0.383144498,157.9157257,81.5,127.352624,36.3643408,0,9.850405645,0.369436601,0.054350038,9.799559402,0.368280536,0.058208462,-7.744504833,1013.116382,-0.001315193,-0.001243722,0.00102381,-0.99316965,-0.01899735,-0.000786,0.115115149,-0.005939837,-0.037562997,2.910696971,825,0.045938063,-0.00028,-0.001344436,-68.05263158,3228.315789,-959.9964492,-1295.675257,-224.24823,1,1,1,1,0,99,2432,1
24,45,1.5,1.714758039,14.1079998,0.383144498,157.9157257,81.5,127.352624,36.3643408,0,9.842145395,0.370753452,0.053751469,9.799597025,0.367784716,0.05482697,-7.663122797,1013.106616,-0.001376279,-0.000816,0.000963,-0.993253347,-0.01895195,-0.000632,0.114398599,-0.005594759,-0.037512401,2.912146723,825,0.040633059,0.003447594,-0.00550491,-68.05263158,3228.315789,-960.1905661,-1295.675271,-225.2929373,1,1,1,1,0,99,2432,1
25,45,1.5,1.714758039,14.1079998,0.383144498,157.9157257,81.5,127.352624,36.3643408,0,9.816287374,0.368239465,0.049800916,9.799614191,0.368132101,0.049211485,-7.697472334,1013.110742,-0.00106596,-0.001258077,0.000989,-0.993335307,-0.0189365,-0.000359,0.11368875,-0.005021737,-0.03754785,2.913586748,825,0.014997053,-0.004441753,0.001187999,-68.05263158,3228.315789,-959.9812279,-1295.729973,-224.1674957,1,1,1,1,0,99,2432,1
26,45,1.5,1.714758039,14.1079998,0.383144498,157.9157257,81.5,127.352624,36.3643408,0,9.825744677,0.366563472,0.046808073,9.79962244,0.367722507,0.050677982,-7.756923437,1013.11792,-0.000725,-0.000998,0.000863,-0.993371546,-0.0189241,-0.000441,0.113373001,-0.005171376,-0.037506052,2.914219785,825,0.020854807,3.81E-05,-0.002074203,-68.05263158,3228.315789,-959.7635031,-1295.654089,-223.464701,1,1,1,1,0,99,2432,1
27,45,1.5,1.714758039,14.1079998,0.383144498,157.9157257,81.5,127.352624,36.3643408,0,9.841427279,0.364169194,0.043336374,9.799688911,0.366235065,0.048550329,-7.715704012,1013.112891,-0.000542,-0.001180802,0.000863,-0.993405801,-0.0188363,-0.000348,0.11308845,-0.004954232,-0.037354269,2.914797568,825,0.041498852,0.003800102,0.003166007,-68.05263158,3228.315789,-959.7952809,-1295.8941,-223.5458778,1,1,1,1,0,99,2432,1
28,45,1.5,1.602750063,14.11200047,0.247565567,33.36690521,81.5,127.3526317,36.3643516,0,9.851842308,0.366802901,0.04896292,9.799676514,0.366555142,0.048635043,-7.680561781,1013.108691,-0.000511,-0.001180803,0.000649,-0.993440846,-0.0188529,-0.000356,0.112777199,-0.004962882,-0.037386931,2.915423882,825,0.051088285,0.000248,-0.00051,-68.05263158,3228.315789,-959.9737358,-1295.673729,-224.1074953,1,1,1,1,0,99,2432,1
29,45,1.5,1.602750063,14.11200047,0.247565567,33.36690521,81.5,127.3526317,36.3643516,0,9.839272308,0.367880325,0.045491222,9.799714231,0.365647046,0.047800043,-7.764321899,1013.118823,-0.000546,-0.001067456,0.000621,-0.993483895,-0.01880195,-0.000326,0.1124058,-0.004877659,-0.037294266,2.916173601,825,0.039677858,0.002951561,8.55E-05,-68.05263158,3228.315789,-960.0564467,-1295.692907,-224.9964644,1,1,1,1,0,99,2432,1
30,45,1.5,1.602750063,14.11200047,0.247565567,33.36690521,81.5,127.3526317,36.3643516,0,9.821913862,0.365845191,0.046688359,9.799759054,0.364552903,0.046949916,-7.775683594,1013.120166,-0.000364,-0.000674,0.000424,-0.9935094,-0.01874155,-0.000293,0.112190751,-0.00479089,-0.037182617,2.916608679,825,0.021795511,0.001052861,0.001055294,-68.05263158,3228.315789,-960.3352733,-1295.378799,-224.9717614,1,1,1,1,0,99,2432,1
31,45,1.5,1.602750063,14.11200047,0.247565567,33.36690521,81.5,127.3526317,36.3643516,0,9.815808392,0.363450916,0.043575801,9.799725342,0.365686777,0.045185936,-7.785195923,1013.12124,-0.000303,-0.000583,0.000393,-0.993524453,-0.0187889,-0.0002,0.11204955,-0.004610906,-0.037298321,2.916895819,825,0.012371874,-0.001517579,-0.000413,-68.05263158,3228.315789,-960.1499863,-1295.467476,-224.9474964,1,1,1,1,0,99,2432,1
32,45,1.5,1.651685834,13.82400036,0.182525292,10.56410122,81.5,127.3526328,36.3643576,0,9.809822702,0.365605763,0.04321666,9.799780941,0.364461043,0.042990969,-7.788102388,1013.121631,-0.00012,-0.000766,0.000668,-0.993541011,-0.0187142,-9.82E-05,0.11191575,-0.004386903,-0.037173244,2.917169964,825,0.014710617,-0.001129842,0.001422829,-68.05263158,3228.315789,-960.3070427,-1295.527035,-225.2294069,1,1,1,1,0,99,2432,1
33,45,1.5,1.651685834,13.82400036,0.182525292,10.56410122,81.5,127.3526328,36.3643576,0,9.803837061,0.363211486,0.044174371,9.799781227,0.364398076,0.043427472,-7.763265085,1013.118677,-8.38E-05,-0.000412,0.000353,-0.993546301,-0.0187135,-0.000122,0.1118668,-0.004431444,-0.037166819,2.917267537,825,0.008485174,-0.000947,0.002183463,-68.05263158,3228.315789,-960.3141013,-1295.685863,-225.2823486,1,1,1,1,0,99,2432,1
34,45,1.5,1.651685834,13.82400036,0.182525292,10.56410122,81.5,127.3526328,36.3643576,0,9.805034208,0.365126908,0.042378664,9.799784136,0.364526168,0.04166858,-7.705663443,1013.111694,-4.76E-05,9.71E-05,-2.32E-05,-0.993545744,-0.01870995,-3.15E-05,0.1118741,-0.004251963,-0.03717989,2.917256308,825,0.004292297,0.003593582,-0.003120755,-68.05263158,3228.315789,-960.0262299,-1295.602463,-225.2887459,1,1,1,1,0,99,2432,1
35,45,1.5,1.651685834,13.82400036,0.182525292,10.56410122,81.5,127.3526328,36.3643576,0,9.805992031,0.363450916,0.040104103,9.799749517,0.365456036,0.041573458,-7.69033823,1013.109839,7.45E-05,9.71E-05,0.000465,-0.993537456,-0.01875655,-2.02E-05,0.111938949,-0.004242271,-0.037274777,2.91712544,825,0.006122732,-0.000569,0.002002344,-68.05263158,3228.315789,-960.1023308,-1295.590562,-225.1764661,1,1,1,1,0,99,2432,1
36,45,1.5,1.651685834,13.82400036,0.182525292,10.56410122,81.5,127.3526328,36.3643576,0,9.802161169,0.36321149,0.038787252,9.799817991,0.36385714,0.03953499,-7.76590724,1013.118945,-0.000109,-0.000117,9.90E-05,-0.993535498,-0.01866385,7.46E-05,0.111972701,-0.004034236,-0.03711162,2.917062163,825,0.003420496,-0.000885,0.00033,-68.05263158,3228.315789,-960.1976247,-1295.707046,-224.922348,1,1,1,1,0,99,2432,1
37,0,1.5,1.666327596,13.62800026,0.038256302,0,81.5,127.3526331,36.3643552,0,9.806710148,0.367401466,0.039744962,9.799792433,0.364587769,0.039082505,-7.771191835,1013.11958,5.49E-05,0.000106,2.50E-05,-0.993529049,-0.0186983,0.000103,0.112022902,-0.003988075,-0.037186175,2.916961563,825,0.009431791,-5.94E-05,-0.000774,-68.05263158,3228.315789,-960.3749809,-1295.718719,-225.1987467,1,1,1,1,0,99,2432,1
38,0,1.5,1.666327596,13.62800026,0.038256302,0,81.5,127.3526331,36.3643552,0,9.807548237,0.366563475,0.039744962,9.799749041,0.365782614,0.038827138,-7.840947771,1013.127905,0.000223,-8.67E-05,8.67E-05,-0.993522799,-0.0187574,0.000123,0.1120696,-0.003962034,-0.0373081,2.916867673,825,0.005404854,-0.004845686,-0.000519,-68.05263158,3228.315789,-960.3141049,-1295.671739,-224.9294093,1,1,1,1,0,99,2432,1
39,0,1.5,1.666327596,13.62800026,0.038256302,0,81.5,127.3526331,36.3643552,0,9.806470728,0.367760611,0.035435267,9.799791145,0.364686963,0.03846809,-7.778590107,1013.120483,-0.000144,9.65E-05,2.57E-05,-0.993519002,-0.0186998,0.000136,0.112113201,-0.003925379,-0.037196297,2.916781032,825,0.011707497,-0.000637,0.000918,-68.05263158,3228.315789,-960.0246869,-1295.597628,-224.8305844,1,1,1,1,0,99,2432,1
40,0,1.5,1.666327596,13.62800026,0.038256302,0,81.5,127.3526331,36.3643552,0,9.813294506,0.372190015,0.047765783,9.799563503,0.369795163,0.046146155,-7.7519032,1013.11731,0.000345,-0.002133141,0.001430646,-0.993501604,-0.0190027,-0.000222,0.11221475,-0.004708979,-0.03771756,2.916559279,825,0.015167475,0.004310277,0.002218197,-68.05263158,3228.315789,-959.8312225,-1295.864967,-223.4024963,1,1,1,1,0,99,2432,1
41,0,1.5,1.666327596,13.62800026,0.038256302,0,81.5,127.3526331,36.3643552,0,9.835920382,0.376260285,0.053990897,9.79937377,0.374160905,0.051395114,-7.82747221,1013.126392,0.000101,0.001318247,-0.00086,-0.993483955,-0.0192541,-0.000461,0.112328101,-0.00524469,-0.038163059,2.916318858,825,0.041454792,-0.001013175,-0.004108187,-68.05263158,3228.315789,-959.7493896,-1295.93997,-223.3623487,1,1,1,1,0,99,2432,1
42,45,1.5,1.645174384,14.35299969,0.160605162,244.4029388,81.5,127.3526235,36.3643516,0,9.859025049,0.36835918,0.047167214,9.799632406,0.36800988,0.046446295,-7.813203859,1013.124634,-8.25E-05,0.000402,2.57E-05,-0.993483892,-0.01891395,-0.000244,0.1123875,-0.00473956,-0.037535377,2.916211963,825,0.049097347,0.000948,-0.00179307,-68.05263158,3228.315789,-959.862337,-1295.728214,-223.5564665,1,1,1,1,0,99,2432,1
43,45,1.5,1.645174384,14.35299969,0.160605162,244.4029388,81.5,127.3526235,36.3643516,0,9.849687481,0.370873165,0.044174371,9.799627447,0.36807795,0.046968977,-7.793122625,1013.122241,-0.000113,-0.000301,-4.89E-06,-0.993482897,-0.0189204,-0.00027,0.112395099,-0.004792898,-0.037542324,2.916195643,825,0.052454233,0.001238938,0.003071367,-68.05263158,3228.315789,-959.9287338,-1295.669975,-224.9024944,1,1,1,1,0,99,2432,1
44,45,1.5,1.645174384,14.35299969,0.160605162,244.4029388,81.5,127.3526235,36.3643516,0,9.828019238,0.37123231,0.048364351,9.799646568,0.367691466,0.045967506,-7.815846252,1013.125,-2.72E-05,-6.04E-05,-0.000101,-0.993492651,-0.01889505,-0.000223,0.1123121,-0.004690697,-0.037502885,2.916364741,825,0.0328022,-0.000769,0.001798277,-68.05263158,3228.315789,-960.1376307,-1295.675264,-225.0847006,1,1,1,1,0,99,2432,1
45,45,1.5,1.645174384,14.35299969,0.160605162,244.4029388,81.5,127.3526235,36.3643516,0,9.81832242,0.368838032,0.042378664,9.799658346,0.367482193,0.045124795,-7.833021021,1013.127002,0.000147,-0.000296,0.000289,-0.9935002,-0.0188796,-0.000183,0.11224875,-0.004604699,-0.03748153,2.916494083,825,0.017107868,-0.001996142,-0.004422123,-68.05263158,3228.315789,-960.2576366,-1295.61527,-224.9682303,1,1,1,1,0,99,2432,1
46,45,1.5,1.645174384,14.35299969,0.160605162,244.4029388,81.5,127.3526235,36.3643516,0,9.812097168,0.368838035,0.047406642,9.799734068,0.365795279,0.042290411,-7.890886831,1013.134009,-0.000128,-0.000112,0.000106,-0.993509459,-0.01877785,-4.99E-05,0.1121846,-0.004315438,-0.037309393,2.916629493,825,0.00769434,0.001127334,-0.001348312,-68.05263158,3228.315789,-960.2662392,-1295.613731,-225.1799936,1,1,1,1,0,99,2432,1
47,45,1.5,1.609989047,14.14999962,0.172555894,116.5770111,81.5,127.352632,36.3643485,0,9.806949615,0.365246619,0.042139237,9.799686718,0.366979013,0.043050589,-7.812675524,1013.124561,-0.000219,-0.000326,0.000197,-0.993518302,-0.0188422,-8.34E-05,0.1120946,-0.004393029,-0.037430184,2.916808593,825,0.008819246,-0.000176,-0.002108489,-68.05263158,3228.315789,-960.2293952,-1295.611752,-225.077643,1,1,1,1,0,99,2432,1
48,45,1.5,1.609989047,14.14999962,0.172555894,116.5770111,81.5,127.352632,36.3643485,0,9.806231308,0.365725474,0.040463244,9.799716854,0.366491194,0.040178433,-7.799728346,1013.123047,-7.17E-05,-0.00011,8.17E-05,-0.993527499,-0.01880105,5.80E-05,0.1120206,-0.004099936,-0.037380406,2.916963375,825,0.003880739,-0.00244171,-0.002827745,-68.05263158,3228.315789,-960.1482221,-1295.675264,-224.7988183,1,1,1,1,0,99,2432,1
49,45,1.5,1.609989047,14.14999962,0.172555894,116.5770111,81.5,127.352632,36.3643485,0,9.807548094,0.366683184,0.041181526,9.799707508,0.366701932,0.040574869,-7.89511447,1013.134473,6.11E-06,4.40E-05,0.000159,-0.993528396,-0.018814,3.88E-05,0.112009201,-0.004140393,-0.03740191,2.916985357,825,0.006284523,0.002495244,8.09E-06,-68.05263158,3228.315789,-960.0974846,-1295.726227,-225.0224943,1,1,1,1,0,99,2432,1
50,45,1.5,1.609989047,14.14999962,0.172555894,116.5770111,81.5,127.352632,36.3643485,0,9.806470823,0.366084616,0.036512691,9.799701643,0.366823094,0.040926745,-7.899077797,1013.134937,0.000189,-0.00017,0.000251,-0.993525457,-0.01882215,2.22E-05,0.112035,-0.004176302,-0.037414273,2.916932774,825,0.008445072,-0.000738,0.00240963,-68.05263158,3228.315789,-959.9894014,-1295.618789,-224.7458792,1,1,1,1,0,99,2432,1
51,45,1.5,1.609989047,14.14999962,0.172555894,116.5770111,81.5,127.352632,36.3643485,0,9.807787609,0.365126908,0.04034353,9.799736547,0.366008691,0.039848112,-7.90304122,1013.135449,6.72E-05,-0.0002,6.78E-05,-0.993523401,-0.0187747,7.27E-05,0.11206125,-0.004066221,-0.037331171,2.916882396,825,0.010445261,0.001751916,-0.00297628,-68.05263158,3228.315789,-960.1305722,-1295.671746,-224.9752906,1,1,1,1,0,99,2432,1
52,45,1.5,1.596218824,14.41800022,0.185394719,335.4820251,81.5,127.3526269,36.3643569,0,9.809822702,0.368119752,0.038547824,9.799757099,0.365455961,0.039859803,-7.915195704,1013.13689,-0.000156,1.92E-05,0.00022,-0.99352746,-0.01874675,6.83E-05,0.11202965,-0.004067405,-0.037274767,2.916946197,825,0.010903645,-0.001645903,-0.000713,-68.05263158,3228.315789,-960.2362289,-1295.786217,-225.0449953,1,1,1,1,0,99,2432,1
53,45,1.5,1.596218824,14.41800022,0.185394719,335.4820251,81.5,127.3526269,36.3643569,0,9.81449151,0.365246619,0.036632405,9.79977994,0.364968215,0.038674205,-7.867106295,1013.131128,-6.29E-05,6.72E-05,0.000158,-0.993531093,-0.01871525,0.000125,0.11200365,-0.003946416,-0.037224997,2.917001057,825,0.011599016,0.000638,0.003225604,-68.05263158,3228.315789,-960.0952795,-1295.777631,-224.9894077,1,1,1,1,0,99,2432,1
54,45,1.5,1.596218824,14.41800022,0.185394719,335.4820251,81.5,127.3526269,36.3643569,0,9.810780478,0.368119754,0.040343531,9.799742889,0.365881619,0.039443275,-7.882167244,1013.132886,8.98E-05,0.00022,-0.000117,-0.993530539,-0.01876595,9.13E-05,0.11199845,-0.004024908,-0.037318203,2.917009568,825,0.007685709,0.000682,0.001618538,-68.05263158,3228.315789,-960.2011611,-1295.611745,-224.9258764,1,1,1,1,0,99,2432,1
55,45,1.5,1.596218824,14.41800022,0.185394719,335.4820251,81.5,127.3526269,36.3643569,0,9.807667828,0.363929771,0.039744963,9.7997334,0.366187605,0.039020909,-7.896964073,1013.134692,0.000181,0.00025,9.65E-05,-0.993534598,-0.01877905,0.000114,0.1119613,-0.003981813,-0.037349427,2.917085099,825,0.006378126,-0.00165927,-0.003825069,-68.05263158,3228.315789,-959.9474792,-1295.594963,-224.8499966,1,1,1,1,0,99,2432,1
56,45,1.5,1.596218824,14.41800022,0.185394719,335.4820251,81.5,127.3526269,36.3643569,0,9.811139631,0.369436602,0.04034353,9.799679232,0.36768706,0.038380025,-7.85970788,1013.130225,0.000179,-0.000184,9.86E-05,-0.993533108,-0.0188514,0.000155,0.11196175,-0.003916438,-0.037502435,2.917084801,825,0.008706951,-0.002440438,0.001484651,-68.05263158,3228.315789,-960.225866,-1295.64703,-225.1447009,1,1,1,1,0,99,2432,1
57,0,1.5,1.574164748,14.24800014,0.068752669,0,81.5,127.3526311,36.3643557,0,9.807189083,0.366563474,0.039505534,9.79965539,0.368386178,0.037813604,-8.001069593,1013.147192,0.000139,-9.16E-05,7.64E-05,-0.993529144,-0.0188836,0.000188,0.111990849,-0.003858647,-0.037573776,2.917026985,825,0.009329271,0.000572,0.002649641,-68.05263158,3228.315789,-960.2470416,-1295.752908,-224.8235231,1,1,1,1,0,99,2432,1
58,0,1.5,1.574164748,14.24800014,0.068752669,0,81.5,127.3526311,36.3643557,0,9.805153894,0.366204332,0.03615355,9.799707508,0.366944943,0.03830622,-7.943467999,1013.140332,7.76E-05,-0.000336,0.000107,-0.993527344,-0.01881335,0.000155,0.1120198,-0.003908895,-0.037426707,2.916968417,825,0.009875727,-0.001818037,0.001319029,-68.05263158,3228.315789,-960.1799889,-1295.564964,-225.1124945,1,1,1,1,0,99,2432,1
59,0,1.5,1.574164748,14.24800014,0.068752669,0,81.5,127.3526311,36.3643557,0,9.806829834,0.36560576,0.03615355,9.799704456,0.367176306,0.036850309,-8.053650808,1013.15354,-0.000167,0.000153,7.64E-05,-0.993523353,-0.01881675,0.000231,0.1120542,-0.003760331,-0.037450317,2.916901851,825,0.003893089,0.000465,-0.000457,-68.05263158,3228.315789,-960.0564611,-1295.735273,-224.7317595,1,1,1,1,0,99,2432,1
60,0,1.5,1.574164748,14.24800014,0.068752669,0,81.5,127.3526311,36.3643557,0,9.804794788,0.370035169,0.031604427,9.799643183,0.368760802,0.037301668,-8.028020859,1013.150415,-0.00011,-9.16E-07,-0.000348,-0.993522707,-0.01889965,0.000217,0.112047,-0.003806414,-0.037612004,2.916914904,825,0.008623219,-0.002077617,0.000887,-68.05263158,3228.315789,-960.194099,-1295.947021,-224.7741143,1,1,1,1,0,99,2432,1
61,0,1.5,1.574164748,14.24800014,0.068752669,0,81.5,127.3526311,36.3643557,0,9.814491558,0.368359177,0.038188683,9.79971633,0.366749261,0.037926641,-8.023264742,1013.149854,0.000277,5.19E-05,-0.000135,-0.993519309,-0.01880125,0.000175,0.11209285,-0.003870159,-0.03740674,2.916822171,825,0.007951593,0.002567625,0.000861,-68.05263158,3228.315789,-960.1537361,-1295.80497,-224.8837442,1,1,1,1,0,99,2432,1
62,0,1.5,1.566718102,14.41800022,0.073693715,0,81.5,127.3526268,36.364357,0,9.819399691,0.365246621,0.040104103,9.799666882,0.367975037,0.03883043,-8.039910984,1013.151929,6.29E-05,-7.02E-05,-7.39E-05,-0.993514502,-0.01886855,0.000137,0.112123851,-0.003962403,-0.037531822,2.916757452,825,0.014824772,2.50E-05,-0.000881,-68.05263158,3228.315789,-960.1270393,-1295.579978,-224.7988191,1,1,1,1,0,99,2432,1
63,0,1.5,1.566718102,14.41800022,0.073693715,0,81.5,127.3526268,36.364357,0,9.811857891,0.368957745,0.035315554,9.799744797,0.366144451,0.036400397,-8.01745162,1013.149194,-0.000212,0.000144,-0.000104,-0.993514451,-0.01876185,0.00025,0.1121416,-0.003714406,-0.037345023,2.916727126,825,0.011394882,-0.00018,-0.001683411,-68.05263158,3228.315789,-960.1588171,-1295.611737,-224.9752915,1,1,1,1,0,99,2432,1
64,0,1.5,1.566718102,14.41800022,0.073693715,0,81.5,127.3526268,36.364357,0,9.809703064,0.367281756,0.038428111,9.799697447,0.367476057,0.035726682,-8.047837734,1013.152808,-8.98E-05,5.19E-05,-0.000135,-0.993516156,-0.0188255,0.000291,0.112117449,-0.003645676,-0.037480904,2.916776669,825,0.009885836,-7.46E-05,-0.001967407,-68.05263158,3228.315789,-960.11623,-1295.793724,-225.029994,1,1,1,1,0,99,2432,1
65,0,1.5,1.566718102,14.41800022,0.073693715,0,81.5,127.3526268,36.364357,0,9.801562548,0.36560576,0.035195839,9.799748182,0.366377375,0.03294592,-7.969098043,1013.143384,-9.16E-06,-0.000142,0.000244,-0.993516603,-0.0187539,0.000426,0.11212405,-0.003361902,-0.037368791,2.916769087,825,-0.001657391,6.64E-05,-0.000743,-68.05263158,3228.315789,-960.257633,-1295.7282,-225.0564656,1,1,1,1,0,99,2432,1
66,0,1.5,1.566718102,14.41800022,0.073693715,0,81.5,127.3526268,36.364357,0,9.802280712,0.36620433,0.036033836,9.799773741,0.365399303,0.036102256,-7.991293144,1013.146021,5.19E-05,0.000163,6.11E-05,-0.993506896,-0.01872235,0.000262,0.1122163,-0.003683972,-0.037268986,2.916577744,825,0.001429653,0.00116417,0.000171,-68.05263158,3228.315789,-960.0423297,-1295.745864,-224.8764666,1,1,1,1,0,99,2432,1
67,0,1.5,1.550581932,14.24800014,0.073894024,0,81.5,127.3526311,36.3643556,0,9.806590414,0.365007192,0.034716985,9.799789953,0.364915517,0.036597321,-8.015866232,1013.149023,2.14E-05,1.04E-05,-0.000214,-0.993500546,-0.01870065,0.000235,0.112275,-0.003734483,-0.037219619,2.916458738,825,0.003209162,0.003084521,-0.000444,-68.05263158,3228.315789,-960.0374794,-1295.66996,-225.1499968,1,1,1,1,0,99,2432,1
68,0,1.5,1.550581932,14.24800014,0.073894024,0,81.5,127.3526311,36.3643556,0,9.80443573,0.365605763,0.037709828,9.799768925,0.36565022,0.034854708,-7.98415904,1013.145166,2.14E-05,-5.07E-05,6.11E-05,-0.993497157,-0.0187279,0.000328,0.11230095,-0.003556672,-0.03729459,2.916409612,825,0.009575176,0.001272392,0.001657982,-68.05263158,3228.315789,-960.3035135,-1295.728207,-224.9258773,1,1,1,1,0,99,2432,1
69,0,1.5,1.550581932,14.24800014,0.073894024,0,81.5,127.3526311,36.3643556,0,9.806111622,0.369556314,0.032681851,9.799689341,0.367832215,0.034254547,-8.04043951,1013.151978,-7.88E-05,0.000172,-9.94E-05,-0.99349016,-0.01883505,0.000372,0.11234505,-0.003495459,-0.037517247,2.916321146,825,0.00749979,-0.00114903,0.001779288,-68.05263158,3228.315789,-960.1058673,-1295.869385,-224.9929352,1,1,1,1,0,99,2432,1
70,0,1.5,1.550581932,14.24800014,0.073894024,0,81.5,127.3526311,36.3643556,0,9.804435635,0.367042327,0.036871832,9.799705362,0.367263962,0.035721752,-8.056821537,1013.153979,-8.25E-05,-0.000134,0.000143,-0.993487406,-0.01881465,0.000295,0.1123716,-0.00364517,-0.037459262,2.916264975,825,0.0108356,-0.000222,-0.00208219,-68.05263158,3228.315789,-960.1799812,-1295.56498,-224.981245,1,1,1,1,0,99,2432,1
71,0,1.5,1.550581932,14.24800014,0.073894024,0,81.5,127.3526311,36.3643556,0,9.80718894,0.37039431,0.035435267,9.799709892,0.367192067,0.03522945,-8.012695456,1013.14856,-5.19E-05,-0.000134,5.13E-05,-0.993494803,-0.0188082,0.000318,0.11230905,-0.003594933,-0.037451925,2.916392004,825,0.005922842,0.00116711,-0.002787027,-68.05263158,3228.315789,-959.9823357,-1295.798799,-225.0105833,1,1,1,1,0,99,2432,1
72,45,1.5,1.535211444,14.01799965,0.101561584,156.417984,81.5,127.3526333,36.3643512,0,9.810301542,0.368718317,0.032083283,9.799738455,0.366443275,0.035088204,-7.993935442,1013.146338,7.02E-05,0.00011,-0.000407,-0.993500948,-0.01876945,0.00032,0.1122606,-0.003580509,-0.037375516,2.916490114,825,0.008408213,0.002275042,0.001903342,-68.05263158,3228.315789,-959.9752736,-1295.812924,-225.1870557,1,1,1,1,0,99,2432,1
73,45,1.5,1.535211444,14.01799965,0.101561584,156.417984,81.5,127.3526333,36.3643512,0,9.809343863,0.368119749,0.036752119,9.799722862,0.36689886,0.034683111,-8.08905735,1013.157739,-0.000398,1.83E-05,0.000239,-0.993509156,-0.01879025,0.000342,0.11218465,-0.003539178,-0.037422005,2.916643631,825,0.010698509,-0.000695,0.001470438,-68.05263158,3228.315789,-960.1012306,-1295.801239,-224.8237457,1,1,1,1,0,99,2432,1
74,45,1.5,1.535211444,14.01799965,0.101561584,156.417984,81.5,127.3526333,36.3643512,0,9.805273724,0.369077463,0.03423813,9.799673557,0.36818703,0.034926209,-8.041760635,1013.152124,0.000186,-0.000226,-6.05E-05,-0.993510491,-0.01885695,0.000336,0.112160651,-0.003564002,-0.037553455,2.916690862,825,0.008233786,0.002087566,0.002544192,-68.05263158,3228.315789,-959.964693,-1295.714111,-224.9682303,1,1,1,1,0,99,2432,1
75,45,1.5,1.535211444,14.01799965,0.101561584,156.417984,81.5,127.3526333,36.3643512,0,9.804794836,0.369316885,0.035554981,9.799701166,0.367300753,0.036486914,-8.020886612,1013.149561,-0.000242,-0.000134,9.22E-05,-0.993509358,-0.01882095,0.000253,0.11217685,-0.003723251,-0.037463015,2.916655564,825,0.006769562,0.001058425,-0.000214,-68.05263158,3228.315789,-960.0176356,-1295.61173,-225.0846997,1,1,1,1,0,99,2432,1
76,45,1.5,1.535211444,14.01799965,0.101561584,156.417984,81.5,127.3526333,36.3643512,0,9.807548285,0.36584519,0.036153549,9.799704647,0.367256708,0.035996426,-8.044138718,1013.152319,3.30E-05,0.000263,-0.000244,-0.993506661,-0.0188159,0.000278,0.112203201,-0.003673199,-0.037458521,2.916603601,825,0.006287336,-0.000933,-8.23E-05,-68.05263158,3228.315789,-960.0337334,-1295.808716,-225.0787439,1,1,1,1,0,99,2432,1
77,0,1.5,1.520415425,13.93900013,0.03653584,0,81.5,127.3526341,36.3643499,0,9.805153894,0.368000038,0.034956412,9.799713993,0.36702743,0.035809411,-7.958793259,1013.142114,0.000218,0.000178,9.10E-05,-0.993503305,-0.0188032,0.000286,0.1122341,-0.003654112,-0.037435124,2.916541803,825,0.000292,0.001092321,-0.001451568,-68.05263158,3228.315789,-960.1235136,-1295.731733,-224.823524,1,1,1,1,0,99,2432,1
78,0,1.5,1.520415425,13.93900013,0.03653584,0,81.5,127.3526341,36.3643499,0,9.806231356,0.366443758,0.035794409,9.799597216,0.37016561,0.035441685,-7.937390804,1013.1396,0.000126,0.000425,-8.49E-05,-0.993493199,-0.01896015,0.000324,0.11229675,-0.003616631,-0.037755356,2.916415107,825,0.004599094,-0.000968,-0.002759833,-68.05263158,3228.315789,-960.0599796,-1295.752923,-225.2505825,1,1,1,1,0,99,2432,1
79,0,1.5,1.520415425,13.93900013,0.03653584,0,81.5,127.3526341,36.3643499,0,9.800006151,0.36907746,0.035435267,9.799650621,0.368699436,0.0359287,-7.950073671,1013.14104,3.48E-05,-0.000492,3.73E-05,-0.993485701,-0.0188886,0.000293,0.11237455,-0.003666308,-0.037605742,2.916258097,825,0.00717926,0.001814586,0.005611968,-68.11111111,3269.777778,-960.0299797,-1295.684982,-225.1162443,1,1,1,1,0,99,2432,1
80,0,1.5,1.520415425,13.93900013,0.03653584,0,81.5,127.3526341,36.3643499,0,9.808865023,0.371711165,0.047646069,9.79952774,0.370967421,0.044768476,-7.922858334,1013.137793,9.59E-05,-0.001194242,0.000862,-0.993478701,-0.01905425,-0.000142,0.1124096,-0.004568402,-0.037837177,2.916169393,825,0.006583881,0.001821165,-0.002389812,-68.11111111,3269.777778,-959.5799776,-1295.87291,-223.2035244,1,1,1,1,0,99,2432,1
81,0,1.5,1.520415425,13.93900013,0.03653584,0,81.5,127.3526341,36.3643499,0,9.829695225,0.379133412,0.060335726,9.799236155,0.376463236,0.058554389,-7.930785131,1013.138745,0.000312,-0.004356691,0.001842431,-0.99346385,-0.019412,-0.000807,0.11247475,-0.00597537,-0.038398017,2.916007793,512,0.028543663,0.00961358,0.006689599,-68.11111111,3269.777778,-959.7105641,-1295.98584,-223.7752892,1,1,1,1,0,99,2432,1
82,45,1.5,1.574798942,14.13099957,0.415542424,287.6972351,81.5,127.3526101,36.3643561,0,9.569916272,0.440426847,0.127734559,9.797502136,0.397112453,0.144213442,-7.891943693,1013.134082,0.000226,-0.01693013,-0.006442185,-0.993438956,-0.02094965,-0.00503315,0.11230135,-0.014718269,-0.040505303,2.916164935,809,-0.068486166,-0.04168236,0.030448906,-68.11111111,3269.777778,-959.4862213,-1296.374969,-224.1224957,1,1,1,1,0,99,2432,1
83,45,1.5,1.574798942,14.13099957,0.415542424,287.6972351,81.5,127.3526101,36.3643561,0,9.752838993,0.377577139,0.154071585,9.79872613,0.366583285,0.144136521,-7.915459967,1013.136914,0.00099,0.000724,0.00156015,-0.993465698,-0.01940185,-0.0052033,0.11234245,-0.014708686,-0.037389818,2.916110992,610,-0.101075196,0.014345835,0.017357315,-68.11111111,3269.777778,-959.703502,-1296.525843,-226.2635256,1,1,1,1,0,99,2432,1
84,45,1.5,1.574798942,14.13099957,0.415542424,287.6972351,81.5,127.3526101,36.3643561,0,9.838075304,0.200400804,-0.196929104,9.799904156,0.22494135,-0.199659268,-7.852573824,1013.129346,-0.003164282,0.046874743,-0.020644802,-0.993555099,-0.01026415,0.01140285,0.111816299,0.020365916,-0.022940513,2.917608058,610,0.080310345,-0.024420837,-0.006846935,-68.11111111,3269.777778,-960.0846917,-1296.127039,-225.3952888,1,1,1,1,0,99,2432,1
85,45,1.5,1.574798942,14.13099957,0.415542424,287.6972351,81.5,127.3526101,36.3643561,0,9.81712532,0.13252311,-0.347050132,9.799741316,0.13055532,-0.344097234,-7.901720142,1013.135254,-0.000385,0.000205,-0.000608,-0.993596944,-0.00466095,0.01817975,0.11140795,0.035098469,-0.013313331,2.91850704,610,0.016426277,0.00089,-0.001276903,-68.11111111,3269.777778,-960.0899811,-1295.868713,-224.489994,1,1,1,1,0,99,2432,1
86,45,1.5,1.574798942,14.13099957,0.415542424,287.6972351,81.5,127.3526101,36.3643561,0,9.808027124,0.121748875,-0.351718965,9.799571657,0.126531525,-0.35037642,-7.963549328,1013.1427,-0.000232,0.001243111,-0.000395,-0.993607253,-0.0044238,0.0184746,0.111276851,0.035739035,-0.012902983,2.91876688,610,0.003547049,0.004794448,-0.001941115,-68.11111111,3269.777778,-960.3388097,-1295.774098,-224.9047008,1,1,1,1,0,99,2432,1
87,0,1.5,1.614238858,14.14700031,0.067205377,0,81.5,127.3526086,36.3643581,0,9.806351042,0.12450229,-0.355190669,9.799493837,0.121943386,-0.354170397,-7.912024879,1013.136548,-0.000324,0.000388,-0.000547,-0.993616402,-0.0041716,0.01864045,0.11117825,0.036125979,-0.012435085,2.918958998,610,0.006019258,-0.000314,0.002571142,-68.11111111,3269.777778,-960.3670403,-1295.692914,-224.8129353,1,1,1,1,0,99,2432,1
88,0,1.5,1.614238858,14.14700031,0.067205377,0,81.5,127.3526086,36.3643581,0,9.80467515,0.118516601,-0.353035823,9.799435568,0.11887522,-0.356810583,-7.888773012,1013.133716,-0.000354,0.000663,-0.000364,-0.993624145,-0.0040027,0.01875655,0.1110956,0.036395262,-0.012122196,2.919121003,610,0.005239582,-0.002513465,-5.61E-05,-68.11111111,3269.777778,-960.4312286,-1295.65873,-224.7562456,1,1,1,1,0,99,2432,1
89,0,1.5,1.614238858,14.14700031,0.067205377,0,81.5,127.3526086,36.3643581,0,9.804076529,0.11815746,-0.360458073,9.799380064,0.117900089,-0.358654904,-7.860500717,1013.130298,-0.000171,0.000235,-0.00015,-0.993634498,-0.00394485,0.0188441,0.11098935,0.036583425,-0.012022753,2.919333827,610,-0.000571,-0.0007,-0.000606,-68.11111111,3269.777778,-960.2258624,-1295.583503,-224.5199962,1,1,1,1,0,99,2432,1
90,0,1.5,1.614238858,14.14700031,0.067205377,0,81.5,127.3526086,36.3643581,0,9.80910449,0.115164617,-0.359141222,9.799297237,0.115966884,-0.361537795,-7.834342051,1013.127197,-0.000263,0.000296,-0.000211,-0.993643996,-0.00383255,0.0189789,0.1108851,0.03687753,-0.011825607,2.919541299,610,0.010645103,-0.001041694,0.000242,-68.11111111,3269.777778,-960.3529268,-1295.756448,-224.5905834,1,1,1,1,0,99,2432,1
91,0,1.5,1.614238858,14.14700031,0.067205377,0,81.5,127.3526086,36.3643581,0,9.804315948,0.113249198,-0.366084614,9.799189663,0.113297205,-0.365278845,-7.849403095,1013.129028,-0.000211,0.000301,-0.00033,-0.993654999,-0.00367845,0.019153,0.110762899,0.037259183,-0.011553357,2.91978389,610,0.010034513,0.003184265,-0.004157758,-68.11111111,3269.777778,-960.2324829,-1295.677483,-224.8237448,1,1,1,1,0,99,2432,1
92,0,1.5,1.637457609,14.02200031,0.047573779,0,81.5,127.3526073,36.364356,0,9.808266544,0.110376069,-0.370154884,9.799153996,0.112130021,-0.366593854,-7.887187672,1013.133472,-6.66E-05,-0.000748,0.000359,-0.993662304,-0.0036133,0.0192128,0.1106887,0.037393327,-0.011434329,2.919931591,610,0.012105322,0.001717746,0.004220365,-68.11111111,3269.777778,-960.2858671,-1295.770558,-224.4952904,1,1,1,1,0,99,2432,1
93,0,1.5,1.637457609,14.02200031,0.047573779,0,81.5,127.3526073,36.364356,0,9.808984804,0.108580363,-0.368239465,9.79908843,0.110462254,-0.368851587,-7.894057512,1013.134399,-5.50E-06,0.00081,-0.00071,-0.993663654,-0.00351655,0.01931775,0.11066195,0.037623656,-0.011264253,2.919983196,610,0.000439,-0.004755021,-0.002859575,-68.11111111,3269.777778,-960.4093951,-1295.756448,-224.728232,1,1,1,1,0,99,2432,1
94,0,1.5,1.637457609,14.02200031,0.047573779,0,81.5,127.3526073,36.364356,0,9.802639866,0.107622653,-0.366922615,9.799056625,0.109007241,-0.370126432,-7.789159298,1013.121753,-5.50E-06,-1.47E-05,5.31E-05,-0.993663299,-0.0034357,0.01937415,0.1106574,0.037753691,-0.011115874,2.919990087,610,0.00693531,-0.001624016,-0.001105873,-68.11111111,3269.777778,-960.4424782,-1295.50499,-224.8012457,1,1,1,1,0,99,2432,1
95,0,1.5,1.637457609,14.02200031,0.047573779,0,81.5,127.3526073,36.364356,0,9.803358269,0.107862081,-0.372908303,9.799065399,0.108233572,-0.370119491,-7.83513484,1013.127271,8.61E-05,0.000199,8.37E-05,-0.993662751,-0.0033964,0.01936945,0.11066395,0.03775295,-0.011036977,2.919975424,610,0.001778841,0.000107,-0.000155,-68.11111111,3269.777778,-960.4693927,-1295.837618,-224.8764648,1,1,1,1,0,99,2432,1
96,0,1.5,1.637457609,14.02200031,0.047573779,0,81.5,127.3526073,36.364356,0,9.800245667,0.104749524,-0.374943434,9.798861742,0.107105288,-0.375795755,-7.849667263,1013.129053,0.000117,0.000352,0.000175,-0.993654951,-0.0033067,0.01965095,0.110688349,0.038332174,-0.010921917,2.91992625,610,0.002341604,0.000278,0.000733,-68.11111111,3269.777778,-960.0988087,-1295.689396,-224.5694095,1,1,1,1,0,99,2432,1
97,45,1.5,1.658769011,14.31999969,0.362228811,308.7417297,81.5,127.3525905,36.3643671,0,9.797851419,0.105467805,-0.376858854,9.798883343,0.10510105,-0.375799674,-7.919159126,1013.137329,5.56E-05,0.000413,0.000267,-0.993656257,-0.00320525,0.0196398,0.11068065,0.038332489,-0.01071753,2.919937897,610,-0.001630545,-0.001428951,0.000497,-68.11111111,3269.777778,-960.2099876,-1295.60997,-224.6024961,1,1,1,1,0,99,2432,1
98,45,1.5,1.658769011,14.31999969,0.362228811,308.7417297,81.5,127.3525905,36.3643671,0,9.8027596,0.105108665,-0.378774273,9.798816681,0.105364909,-0.377459015,-7.852045298,1013.129321,-2.44E-06,0.000188,-8.74E-05,-0.993655357,-0.0032094,0.0197254,0.11067345,0.038501841,-0.010744437,2.91995343,773.3333333,-0.002761078,-0.001333668,1.59E-06,-68.11111111,3269.777778,-960.2611587,-1295.60116,-224.5341142,1,1,1,1,0,99,2432,1
99,45,1.5,1.658769011,14.31999969,0.362228811,308.7417297,81.5,127.3525905,36.3643671,0,9.812097311,0.104510095,-0.403076163,9.797488689,0.100535183,-0.406359816,-7.864464045,1013.130835,0.001646893,0.032777808,-0.008456208,-0.993615654,-0.0027997,0.0211638,0.1107231,0.041452191,-0.010251925,2.919846678,369.6666667,0.00910182,-0.00536276,-0.003659742,-68.11111111,3269.777778,-960.2788122,-1295.76704,-224.4847008,1,1,1,1,0,99,2432,1
100,45,1.5,1.658769011,14.31999969,0.362228811,308.7417297,81.5,127.3525905,36.3643671,0,9.793182516,0.076856221,-0.509741114,9.792458773,0.072916962,-0.510647556,-7.84306159,1013.128223,-0.001499063,-0.024826785,0.004524679,-0.993453452,-0.000801,0.0262973,0.1110209,0.052099905,-0.007435538,2.919196045,415.4,-0.018190908,0.001904125,-0.00627638,-68.11111111,3269.777778,-960.3749771,-1295.486229,-223.8749962,1,1,1,1,0,99,2432,1
101,45,1.5,1.658769011,14.31999969,0.362228811,308.7417297,81.5,127.3525905,36.3643671,0,9.813414145,0.087750171,-0.411934979,9.797525549,0.088795174,-0.413510129,-7.827207947,1013.126318,0.000425,0.001806939,-0.000546,-0.993621802,-0.002166,0.02145975,0.110677449,0.042180535,-0.009054711,2.919922185,833.3333333,0.00978322,-0.000806,-0.00046,-68.11111111,3269.777778,-960.3140977,-1295.587043,-224.2870528,1,1,1,1,0,99,2432,1
102,45,1.5,1.669059873,14.57400036,0.317841291,103.0837631,81.5,127.3526097,36.3643631,0,9.794978142,0.101397539,-0.411336415,9.797843027,0.092569449,-0.404774591,-7.822187567,1013.125708,0.000792,-0.00259129,0.000859,-0.993577302,-0.0023966,0.0210393,0.1111491,0.041289149,-0.0094396,2.918978822,588.4,-0.013519239,-0.001467292,0.00433213,-68.11111111,3269.777778,-960.3246819,-1295.357637,-224.4282298,1,1,1,1,0,99,2432,1
103,45,1.5,1.669059873,14.57400036,0.317841291,103.0837631,81.5,127.3526097,36.3643631,0,9.802999163,0.090024734,-0.430370899,9.797025013,0.09327776,-0.424210207,-7.829321814,1013.126563,0.00015,-0.001552819,-0.000148,-0.993545747,-0.00232025,0.022029,0.111243,0.043272869,-0.009511828,2.918795681,509,0.00824852,-0.002295318,-0.002569278,-68.11111111,3269.777778,-960.39748,-1295.392471,-224.677496,1,1,1,1,0,99,2432,1
104,45,1.5,1.669059873,14.57400036,0.317841291,103.0837631,81.5,127.3526097,36.3643631,0,9.818801165,0.093735859,-0.421751507,9.797047949,0.095733977,-0.423040882,-7.814524984,1013.12478,2.81E-05,0.00434203,-0.002988964,-0.993535456,-0.0024492,0.0219839,0.111340949,0.043153634,-0.009762305,2.918603444,544.2,0.017563391,-0.001998119,-0.002302036,-68.11111111,3269.777778,-960.3246855,-1295.618803,-224.2941114,1,1,1,1,0,99,2432,1
105,45,1.5,1.669059873,14.57400036,0.317841291,103.0837631,81.5,127.3526097,36.3643631,0,9.801083708,0.086912176,-0.464369598,9.79432559,0.087533231,-0.465752986,-7.894585848,1013.134473,0.001005484,0.05565471,-0.006073833,-0.99351345,-0.0017993,0.02410385,0.110911901,0.047518335,-0.008926034,2.919442987,324.6,0.014419699,-0.001219624,-0.005799437,-68.11111111,3269.777778,-960.4623341,-1295.812916,-224.3152906,1,1,1,1,0,99,2432,1
106,45,1.5,1.669059873,14.57400036,0.317841291,103.0837631,81.5,127.3526097,36.3643631,0,9.771035385,0.056624599,-1.109866101,9.745291471,0.050999874,-1.092926374,-7.913874531,1013.136719,0.001982869,0.021293541,0.002722626,-0.9920899,0.00369465,0.05574995,0.1123745,0.111682504,-0.005200564,2.916304123,28.5,-0.023338604,0.013765259,-0.013228592,-68.11111111,3269.777778,-960.3974838,-1295.523712,-222.239996,1,1,1,1,0,99,2432,1
107,45,1.5,1.669059873,14.57400036,0.317841291,103.0837631,81.5,127.3526097,36.3643631,0,9.720276833,0.045730649,-1.141350812,9.739830303,0.045276365,-1.141923648,-7.89934206,1013.134961,-9.41E-05,-0.004546059,-0.000484,-0.991916898,0.00428425,0.05820975,0.112662749,0.116709854,-0.004616921,2.915669787,43.4,0.000918,0.002609131,0.010987949,-68.11111111,3269.777778,-960.4058694,-1295.615263,-221.9258773,1,1,1,1,0,99,2432,1
108,45,1.5,1.682653785,14.4460001,0.14770779,251.387207,81.5,127.3526004,36.364361,0,9.741226768,0.032801565,-1.128900582,9.741961098,0.039783187,-1.123418134,-7.907797241,1013.136011,5.86E-05,-0.002316401,0.000646,-0.991973752,0.0044548,0.0572361,0.11264525,0.114810325,-0.004056767,2.915681016,60.16666667,-0.023719454,-0.00147479,-0.004165584,-68.11111111,3269.777778,-960.4870354,-1295.357616,-221.9435245,1,1,1,1,0,99,2432,1
109,45,1.5,1.682653785,14.4460001,0.14770779,251.387207,81.5,127.3526004,36.364361,0,9.749726439,0.041540667,-1.121478319,9.742646503,0.041459692,-1.117706662,-7.936333799,1013.139453,-0.000552,0.00293704,0.000493,-0.992018646,0.0043227,0.0569559,0.11240475,0.114223736,-0.004227725,2.916178405,89.6,-0.00237751,0.00439067,-0.00161683,-68.11111111,3269.777778,-960.3749809,-1295.257462,-221.9812441,1,1,1,1,0,99,2432,1
110,45,1.5,1.682653785,14.4460001,0.14770779,251.387207,81.5,127.3526004,36.364361,0,9.704474688,0.043695516,-1.186123747,9.735703516,0.045110048,-1.175846136,-7.947695589,1013.140796,0.000181,0.007701789,-0.00021,-0.991856402,0.0044653,0.0599386,0.1122612,0.120194528,-0.004599962,2.916463602,172.1666667,0.023719788,0.004092299,-0.006805915,-68.11111111,3269.777778,-960.4199865,-1295.569365,-221.4811698,1,1,1,1,0,99,2432,1
111,45,1.5,1.682653785,14.4460001,0.14770779,251.387207,81.5,127.3526004,36.364361,0,9.723509169,0.0470475,-1.196538824,9.733341932,0.049850888,-1.195342416,-7.934484243,1013.139209,-0.000888,0.009626014,0.002447737,-0.991837749,0.0043142,0.06096055,0.11188775,0.122197184,-0.005083401,2.917237294,131.4,0.023687077,-0.001486537,-0.010653812,-68.11111111,3269.777778,-960.4693891,-1295.509392,-221.8588176,1,1,1,1,0,99,2432,1
112,45,1.5,1.682653785,14.4460001,0.14770779,251.387207,81.5,127.3526004,36.364361,0,9.822033501,0.061892004,-1.373116601,9.709000158,0.078078637,-1.378018618,-7.892472076,1013.134155,0.001280374,0.000707,0.006693251,-0.991211155,0.0039355,0.07043825,0.11189495,0.140990382,-0.007961891,2.917332828,15,0.127877855,0.011108099,-0.004435664,-68.11111111,3269.777778,-960.4499817,-1295.786224,-221.1449957,1,1,1,1,0,99,2432,1
113,45,1.5,1.687169552,14.13099957,0.178835586,124.5905457,81.5,127.3526096,36.3643562,0,9.801921654,0.095651278,-1.481457531,9.693748617,0.099918345,-1.478951776,-7.927614498,1013.138452,0.001127657,0.024897646,0.007823351,-0.990794298,0.00342615,0.07571935,0.112111401,0.151400147,-0.01018902,2.91702137,17.66666667,0.003782558,0.00973944,-0.021779668,-68.11111111,3269.777778,-960.2470488,-1295.827041,-220.6764652,1,1,1,1,0,99,2432,1
114,45,1.5,1.687169552,14.13099957,0.178835586,124.5905457,81.5,127.3526096,36.3643562,0,9.541424561,0.098404695,-1.392031366,9.702209044,0.081857618,-1.421661019,-7.917045212,1013.137109,-0.0004,-0.029866422,-0.010624779,-0.991000348,0.00401935,0.07268955,0.1122142,0.145494424,-0.008347268,2.916704464,123.2,-0.10739212,0.006012268,0.020890534,-68.11111111,3269.777778,-960.2682172,-1295.87291,-221.0682301,1,1,1,1,0,99,2432,1
115,45,1.5,1.687169552,14.13099957,0.178835586,124.5905457,81.5,127.3526096,36.3643562,0,9.807428551,0.075060514,-0.650404748,9.779202747,0.076526562,-0.696812916,-7.969098091,1013.143359,-0.003178943,-0.072016126,0.00256991,-0.993086496,8.45E-05,0.03577055,0.11125695,0.071137291,-0.007803624,2.918725944,681.6,0.026789141,-0.004937747,0.052393851,-68.11111111,3269.777778,-960.4274826,-1295.561218,-223.6949949,1,1,1,1,0,99,2432,1
116,45,1.5,1.687169552,14.13099957,0.178835586,124.5905457,81.5,127.3526096,36.3643562,0,9.792583942,0.082722194,-0.557985735,9.790512037,0.082702653,-0.556250787,-7.961699724,1013.142505,0.000334,-0.000637,-5.68E-05,-0.993399999,-0.00104015,0.0286656,0.11105225,0.056754276,-0.008433424,2.919176137,681.6,0.001473475,-0.00022,0.001976168,-68.11111111,3269.777778,-960.4376293,-1295.544663,-223.8988181,1,1,1,1,0,99,2432,1
117,45,1.5,1.687169552,14.13099957,0.178835586,124.5905457,81.5,127.3526096,36.3643562,0,9.793302202,0.080806775,-0.555471754,9.790663004,0.082362492,-0.553643173,-7.911496544,1013.136377,0.000334,-0.000148,-2.63E-05,-0.993391052,-0.0010344,0.0285315,0.111166801,0.056487919,-0.008398735,2.918944204,681.6,0.000963,0.00036,0.005114815,-68.11111111,3269.777778,-960.4623305,-1295.572905,-224.0858801,1,1,1,1,0,99,2432,1
118,45,1.5,1.691950917,14.4460001,0.174600601,301.7433167,81.5,127.3526003,36.3643609,0,9.791745996,0.082961622,-0.552838057,9.790770912,0.081313239,-0.551884565,-7.922329855,1013.137671,0.00015,-0.000178,-5.68E-05,-0.993385145,-0.000989,0.0284364,0.111245199,0.056308248,-0.008291738,2.918783331,681.6,-0.001658583,0.001648382,-0.000475,-68.11111111,3269.777778,-960.5287285,-1295.598724,-224.0774937,1,1,1,1,0,99,2432,1
119,45,1.5,1.691950917,14.4460001,0.174600601,301.7433167,81.5,127.3526003,36.3643609,0,9.7889925,0.080687061,-0.549725497,9.790911436,0.080936646,-0.549436978,-7.890886784,1013.13396,0.000204,-0.000148,2.37E-05,-0.993382657,-0.000982,0.02831015,0.1112983,0.056058246,-0.008253335,2.918675017,681.6,-0.002756882,-0.000968,0.001746619,-67.28571429,3508.428571,-960.4517427,-1295.527042,-223.9447013,1,1,1,1,0,99,2432,1
120,45,1.5,1.691950917,14.4460001,0.174600601,301.7433167,81.5,127.3526003,36.3643609,0,9.791985512,0.079968779,-0.548767787,9.791026211,0.080020672,-0.547527775,-7.998691511,1013.146875,5.68E-05,0.000423,0.000159,-0.993384346,-0.000946,0.0282081,0.1113095,0.055863204,-0.008159928,2.918649673,681.6,0.005508184,6.78E-05,-0.001120296,-67.28571429,3508.428571,-959.9505795,-1295.834099,-222.3070526,1,1,1,1,0,99,2432,1
121,45,1.5,1.691950917,14.4460001,0.174600601,301.7433167,81.5,127.3526003,36.3643609,0,9.821674395,0.082003912,-0.544817239,9.791179609,0.079688999,-0.544828364,-8.002126503,1013.147339,2.63E-05,0.000117,6.72E-05,-0.993385243,-0.000944,0.0280693,0.11133705,0.055587488,-0.008126106,2.918593061,844,0.027980852,-0.001156785,1.11E-05,-67.28571429,3508.428571,-960.0824852,-1295.816216,-222.8437452,1,1,1,1,0,99,2432,1
122,45,1.5,1.642367959,15.7510004,0.509342551,121.7231522,81.5,127.3526248,36.3643487,0,9.832688141,0.078292786,-0.545296094,9.791304302,0.078889583,-0.542702135,-8.061841774,1013.154492,-9.59E-05,0.000117,6.11E-06,-0.993388045,-0.000916,0.0279569,0.11133935,0.055370295,-0.008044585,2.918585944,857,0.043179369,0.002755188,-0.001755959,-67.28571429,3508.428571,-960.3988073,-1295.639979,-223.030584,1,1,1,1,0,99,2432,1
123,45,1.5,1.642367959,15.7510004,0.509342551,121.7231522,81.5,127.3526248,36.3643487,0,9.825505304,0.076257652,-0.542063817,9.791456318,0.076521115,-0.54028832,-8.044138622,1013.152319,-0.000188,0.000239,6.11E-06,-0.993396351,-0.00081,0.02782095,0.11130075,0.055123666,-0.007803061,2.918656886,857,0.035485458,-0.001580313,-0.002374071,-67.28571429,3508.428571,-960.5152732,-1295.544678,-224.0964661,1,1,1,1,0,99,2432,1
124,45,1.5,1.642367959,15.7510004,0.509342551,121.7231522,81.5,127.3526248,36.3643487,0,9.805393314,0.079011068,-0.540627253,9.791340303,0.076801882,-0.542348889,-8.045988274,1013.152637,-0.000266,0.000111,-5.74E-05,-0.993403298,-0.000815,0.027927,0.1112126,0.055334126,-0.007831693,2.918835402,857,0.012137556,0.002448614,4.56E-05,-67.28571429,3508.428571,-960.5362282,-1295.673721,-223.9574957,1,1,1,1,0,99,2432,1
125,45,1.5,1.642367959,15.7510004,0.509342551,121.7231522,81.5,127.3526248,36.3643487,0,9.795217705,0.07745479,-0.545774946,9.791229963,0.077023026,-0.544305509,-8.013488245,1013.148706,-0.000302,0.000241,-0.00013,-0.993416396,-0.00082,0.0280274,0.111069151,0.055533968,-0.007854243,2.919124866,857,0.000636,-0.001483656,0.000566,-67.28571429,3508.428571,-960.381161,-1295.498801,-223.8070544,1,1,1,1,0,99,2432,1
126,45,1.5,1.642367959,15.7510004,0.509342551,121.7231522,81.5,127.3526248,36.3643487,0,9.788992548,0.076377366,-0.543500385,9.791223049,0.07599841,-0.544572407,-7.958000565,1013.141992,-0.000119,2.69E-05,-7.33E-06,-0.993433747,-0.00077,0.028035,0.110913049,0.055561182,-0.007749759,2.919436336,857,-0.001272678,-0.001895605,0.00250859,-67.28571429,3508.428571,-960.5717414,-1295.601153,-223.8388178,1,1,1,1,0,99,2432,1
127,45,1.5,1.642367959,15.7510004,0.509342551,121.7231522,81.5,127.3526248,36.3643487,0,9.794140244,0.07553937,-0.544697517,9.79125042,0.076638739,-0.54399026,-7.94663868,1013.140649,-0.000272,0.000271,0.000268,-0.993448305,-0.00081,0.028009,0.11078915,0.055501755,-0.007815056,2.919687545,826,0.001453257,-0.002416221,-0.002143827,-67.28571429,3508.428571,-960.5174789,-1295.501213,-223.8937445,1,1,1,1,0,99,2432,1
128,45,1.5,1.583295465,17.04500008,0.124406852,122.1644058,81.5,127.35263,36.3643461,0,9.769958138,0.073145095,-0.523268758,9.791119242,0.087733588,-0.542561191,-7.879525042,1013.132593,-0.000669,-0.010266201,0.000756,-0.993472853,-0.0013874,0.0279993,0.11053845,0.055356915,-0.008946512,2.920216978,464.6,-0.01086576,-0.003694542,0.014863028,-67.28571429,3508.428571,-960.8470387,-1295.230555,-223.4823483,1,1,1,1,0,99,2432,1
129,45,1.5,1.583295465,17.04500008,0.124406852,122.1644058,81.5,127.35263,36.3643461,0,9.798210573,0.121629159,-0.509262258,9.792704964,0.120730788,-0.508665097,-7.899341965,1013.134961,-0.00018,0.000485,0.000451,-0.993513453,-0.00325115,0.02646575,0.11053895,0.051896627,-0.012311425,2.920302057,604.8,0.003470373,0.000779,-0.002153438,-67.28571429,3508.428571,-960.7623255,-1294.884679,-222.8047019,1,1,1,1,0,99,2432,1
130,45,1.5,1.583295465,17.04500008,0.124406852,122.1644058,81.5,127.35263,36.3643461,0,9.794978189,0.120551736,-0.503755425,9.79270277,0.122014155,-0.508400935,-7.858386898,1013.130054,-0.000241,-0.000126,0.000176,-0.993526748,-0.0033209,0.0264592,0.1104186,0.051869737,-0.012442302,2.920547557,856,0.004071188,0.000214,-0.000382,-67.28571429,3508.428571,-960.7724686,-1294.814957,-222.9374943,1,1,1,1,0,99,2432,1
131,45,1.5,1.583295465,17.04500008,0.124406852,122.1644058,81.5,127.35263,36.3643461,0,9.800844193,0.120791163,-0.507705982,9.792653275,0.120219806,-0.509777772,-7.942146969,1013.140137,-0.000272,8.80E-05,0.000206,-0.993536404,-0.0032248,0.0265186,0.1103206,0.052010218,-0.012259316,2.920740688,856,0.00639534,-0.000626,0.003628071,-67.28571429,3508.428571,-960.8646779,-1294.867015,-222.6564672,1,1,1,1,0,99,2432,1
132,45,1.5,1.583295465,17.04500008,0.124406852,122.1644058,81.5,127.35263,36.3643461,0,9.79988656,0.119354599,-0.509142539,9.792667103,0.120876059,-0.509357998,-7.937126493,1013.139478,-0.000106,-0.000279,0.000351,-0.993547052,-0.0032629,0.0265007,0.110228,0.051967394,-0.01232624,2.920928633,856,0.016078186,-0.003197454,0.001771739,-67.28571429,3508.428571,-960.7164522,-1294.895264,-223.0588199,1,1,1,1,0,99,2432,1
133,0,1.5,1.526506066,17.06900024,0.019700918,0,81.5,127.35263,36.3643471,0,9.777140808,0.123544579,-0.829496504,9.765295792,0.119326358,-0.799966025,-7.829850245,1013.12666,0.004040874,0.14284045,0.003118467,-0.992801106,-0.0015157,0.04127335,0.1106105,0.081750534,-0.012168218,2.920188713,577,0.007176352,-0.005358877,-0.044494694,-67.28571429,3508.428571,-960.8587189,-1294.826233,-222.1349945,1,1,1,1,0,99,2432,1
134,0,1.5,1.526506066,17.06900024,0.019700918,0,81.5,127.35263,36.3643471,0,9.707228136,0.255109982,-1.472957876,9.686328268,0.261735313,-1.419142273,-7.868955851,1013.131299,-0.002342668,-0.139623638,-0.002593123,-0.990657005,-0.00514745,0.073665199,0.11161915,0.145465244,-0.026693926,2.919299865,265.6,0.012998724,-0.010456169,-0.025443438,-67.28571429,3508.428571,-959.8905711,-1295.452917,-219.4694052,1,1,1,1,0,99,2432,1
135,0,1.5,1.526506066,17.06900024,0.019700918,0,81.5,127.35263,36.3643471,0,9.792344618,0.167838663,-0.524944749,9.791041374,0.168958127,-0.526622269,-7.874768877,1013.132007,-8.25E-05,-0.001171029,0.000156,-0.993536204,-0.00561105,0.0276459,0.1099506,0.053734358,-0.017229787,2.921620655,803.6666667,0.001063776,-0.002675743,0.001078948,-67.28571429,3508.428571,-960.455272,-1295.050559,-223.1858808,1,1,1,1,0,99,2432,1
136,0,1.5,1.526506066,17.06900024,0.019700918,0,81.5,127.35263,36.3643471,0,9.787675667,0.161254407,-0.781850439,9.76968708,0.165695201,-0.769997892,-7.929728174,1013.138672,0.004621195,0.099560652,0.008494082,-0.992928556,-0.00404475,0.04000165,0.1104804,0.078658586,-0.016897056,2.920646214,791,0.018946362,-0.00049,-0.01388768,-67.28571429,3508.428571,-960.4649773,-1295.01371,-222.4312439,1,1,1,1,0,99,2432,1
137,0,1.5,1.526506066,17.06900024,0.019700918,0,81.5,127.35263,36.3643471,0,9.706030941,0.198964239,-1.257951981,9.718274593,0.20593549,-1.257945316,-7.903833914,1013.135522,-0.00432798,-0.102849548,-0.009221011,-0.991502407,-0.00326845,0.0650702,0.11142245,0.12872112,-0.021001406,2.919207168,352.3333333,0.011220217,-0.008647247,0.016394117,-67.28571429,3508.428571,-960.2223403,-1295.205846,-220.4435272,1,1,1,1,0,99,2432,1
138,45,1.5,1.492459774,17.39500046,0.114290483,289.0782166,81.5,127.3526235,36.3643489,0,9.80012598,0.170831507,-0.452278513,9.794305754,0.167383387,-0.462349533,-7.953244591,1013.141455,-0.000205,0.002433076,0.00183565,-0.993630597,-0.00589395,0.024376,0.10985275,0.047170928,-0.017069186,2.921775305,399.8,-0.002320385,-0.000981,0.007796465,-67.28571429,3508.428571,-960.4446842,-1295.152904,-223.6482311,1,1,1,1,0,99,2432,1
139,45,1.5,1.492459774,17.39500046,0.114290483,289.0782166,81.5,127.3526235,36.3643489,0,9.794619036,0.168796374,-0.46460903,9.794380283,0.169232555,-0.460283141,-7.904362345,1013.135571,-5.19E-05,-0.000102,3.36E-05,-0.993638152,-0.0060005,0.02428125,0.109802151,0.046960066,-0.017257775,2.921880484,773.4,0.002154303,-0.000915,-0.000136,-67.28571429,3508.428571,-960.3787346,-1295.077461,-223.4999962,1,1,1,1,0,99,2432,1
140,45,1.5,1.492459774,17.39500046,0.114290483,289.0782166,81.5,127.3526235,36.3643489,0,9.793661404,0.16807809,-0.462813322,9.794288254,0.168076732,-0.46265977,-7.865785122,1013.130933,-0.000113,5.07E-05,9.47E-05,-0.993645352,-0.0059307,0.0243948,0.10971665,0.047202624,-0.017139896,2.922051406,860,-0.001225376,0.00251535,0.002001296,-67.28571429,3508.428571,-960.3740988,-1295.075267,-223.5070523,1,1,1,1,0,99,2432,1
