Time,location_bearingAccuracy,location_speedAccuracy,location_verticalAccuracy,location_horizontalAccuracy,location_speed,location_bearing,location_altitude,location_longitude,location_latitude,pedometer_steps,totalAcceleration_z,totalAcceleration_y,totalAcceleration_x,gravity_z,gravity_y,gravity_x,barometer_relativeAltitude,barometer_pressure,gyroscope_z,gyroscope_y,gyroscope_x,orientation_qz,orientation_qy,orientation_qx,orientation_qw,orientation_roll,orientation_pitch,orientation_yaw,light_lux,accelerometer_z,accelerometer_y,accelerometer_x,wiFi_level,wiFi_frequency,magnetometer_z,magnetometer_y,magnetometer_x,network_type,network_isConnected,network_isInternetReachable,network_isWifiEnabled,network_isConnectionExpensive,network_strength,network_frequency,label
0,45.0,1.5,1.475618124,11.47500038,0.278579146,258.4609375,106.0,127.3653913,36.3742499,0.0,8.765972084,3.853452259,0.608278812,9.764415847,-0.605023235,-0.222455769,0.036660671,1009.152832,0.19963781,0.263730833,0.279183223,-0.859822714,0.032836889,-0.005790445,0.508235941,0.022730946,0.061785928,2.074187444,80.0,-1.077587737,4.442114592,0.807190882,-63.59090909,3959.787879,-761.8015231,682.5646034,1789.116896,1,1,1,1,0,99.0,5500.0,1
1,45.0,1.5,1.475618124,11.47500038,0.278579146,258.4609375,106.0,127.3653913,36.3742499,0.0,9.423027873,0.60287839,-1.270043075,9.040939808,-2.441510371,-1.248416931,0.040426254,1009.152344,-1.071243843,0.133055,-0.342766872,-0.871366453,0.16260445,0.019060999,0.392807753,0.132432188,0.257015761,2.290141314,80.0,0.22143209,2.973757654,-0.058378208,-63.59090909,3959.787879,-755.0117439,689.258807,1790.456442,1,1,1,1,0,99.0,5500.0,1
2,45.0,1.5,1.475618124,11.47500038,0.278579146,258.4609375,106.0,127.3653913,36.3742499,0.0,9.464927459,-0.935802296,0.115523757,8.648411369,-3.426956499,3.0489259,-0.204248428,1009.181689,-0.137078162,-0.044218093,-0.022184797,-0.9682686,0.171136751,-0.17056385,0.05436595,-0.338749342,0.357508552,3.090876853,13.0,0.740856981,2.462303185,-2.957344878,-63.59090909,3959.787879,-733.0012245,661.2562294,1753.443718,1,1,1,1,0,99.0,5500.0,1
3,45.0,1.5,1.475618124,11.47500038,0.278579146,258.4609375,106.0,127.3653913,36.3742499,0.0,9.790668631,-0.310417731,0.505551127,9.744002628,-0.528427476,0.731453359,-0.33874054,1009.197778,0.001985312,0.000436,-0.000346,-0.997765452,0.0257012,-0.03835905,0.035505,-0.07520968,0.054003663,3.073576868,13.5,0.050975609,0.221242018,-0.222430542,-63.59090909,3959.787879,-725.7529261,653.6293909,1739.244679,1,1,1,1,0,99.0,5500.0,1
4,45.0,1.5,1.475618124,11.47500038,0.278579146,258.4609375,106.0,127.3653913,36.3742499,0.0,9.780612564,-0.311495155,0.511057962,9.788311195,-0.313040452,0.511228895,-0.298842621,1009.192993,0.001802052,0.000406,-0.000743,-0.998871052,0.0150095,-0.0266409,0.0363376,-0.052181096,0.031926666,3.069700575,13.5,-0.009973145,0.002622722,0.001624773,-63.59090909,3959.787879,-725.8658699,653.6788151,1738.884665,1,1,1,1,0,99.0,5500.0,1
5,45.0,1.5,1.475618124,11.47500038,0.278579146,258.4609375,106.0,127.3653913,36.3742499,0.0,9.756789541,-0.312812002,0.511776245,9.788209534,-0.313870853,0.512662372,-0.352215958,1009.199365,0.001954769,0.000986,-0.000743,-0.998837352,0.0150266,-0.0267283,0.0371827,-0.052327687,0.032011386,3.068012774,13.5,-0.026751137,0.002016559,-0.001604414,-63.59090909,3959.787879,-725.5574875,653.4824791,1740.359955,1,1,1,1,0,99.0,5500.0,1
6,45.0,1.5,1.475618124,11.47500038,0.278579146,258.4609375,106.0,127.3653913,36.3742499,0.0,9.766606092,-0.311375441,0.512015675,9.788282585,-0.31218868,0.512296182,-0.21613884,1009.183105,0.002015855,0.000681,-0.000713,-0.998805749,0.01491775,-0.0267197,0.03807145,-0.052289988,0.031839765,3.066228223,13.5,-0.015930271,0.001890664,0.000677,-63.59090909,3959.787879,-725.5482142,653.4846838,1740.815257,1,1,1,1,0,99.0,5500.0,1
7,45.0,1.5,1.475618124,11.47500038,0.278579146,258.4609375,106.0,127.3653913,36.3742499,0.0,9.792583942,-0.312333152,0.517522502,9.788062763,-0.312893984,0.516048446,-0.253395462,1009.187598,0.001143418,0.000892,-0.000886,-0.998770249,0.0149255,-0.0269241,0.03885015,-0.052673457,0.031911723,3.064676547,13.5,0.000331,0.004032534,0.00219233,-63.59090909,3959.787879,-725.5517506,653.4317412,1740.222319,1,1,1,1,0,99.0,5500.0,1
8,45.0,1.5,1.475618124,11.47500038,0.278579146,258.4609375,106.0,127.3653913,36.3742499,0.0,9.791027784,-0.314847137,0.518719631,9.788001251,-0.31383941,0.516644904,-0.304654694,1009.193677,0.00046,0.000555,-0.000298,-0.998754346,0.0149626,-0.02696195,0.03921795,-0.052734555,0.032008178,3.06394341,13.5,-0.000565,0.002463967,0.001476154,-63.59090909,3959.787879,-725.4374809,653.6474876,1740.164955,1,1,1,1,0,99.0,5500.0,1
9,45.0,1.5,1.475618124,11.47500038,0.278579146,258.4609375,106.0,127.3653913,36.3742499,0.0,9.785401201,-0.322029965,0.516564794,9.7879004,-0.315800525,0.517354426,-0.317866516,1009.195288,0.000521,0.000128,-0.000329,-0.998740995,0.01505385,-0.0270062,0.03948915,-0.052807385,0.032208259,3.063406587,13.5,1.46e-05,0.000594,0.001963788,-63.59090909,3959.787879,-725.6999871,653.5446885,1739.28703,1,1,1,1,0,99.0,5500.0,1
10,45.0,1.5,1.475618124,11.47500038,0.278579146,258.4609375,106.0,127.3653913,36.3742499,0.0,9.771035433,-0.316403417,0.520635059,9.787985277,-0.315166792,0.516130096,-0.26264267,1009.188599,0.000399,0.000555,-0.000145,-0.998734301,0.0150179,-0.02694585,0.0397146,-0.052682192,0.032143603,3.062951577,13.5,-0.019942713,-0.001476049,-0.0012413,-63.59090909,3959.787879,-725.9893978,653.7246955,1738.895242,1,1,1,1,0,99.0,5500.0,1
11,45.0,1.5,1.597683668,11.47500038,0.740991592,267.5128784,106.0,127.3653614,36.3742489,0.0,9.750564528,-0.319635686,0.517881642,9.787833405,-0.315268676,0.518932369,-0.278496552,1009.190601,0.000318,-1.16e-05,-8.55e-05,-0.998721698,0.0150115,-0.0270923,0.03993465,-0.052968512,0.032153999,3.062515497,13.66666667,-0.034276152,0.000661,0.000146,-63.59090909,3959.787879,-726.0112457,653.5349884,1738.657471,1,1,1,1,0,99.0,5500.0,1
12,45.0,1.5,1.597683668,11.47500038,0.740991592,267.5128784,106.0,127.3653614,36.3742489,0.0,9.747212458,-0.312213439,0.51704365,9.787810326,-0.31401111,0.520130646,-0.275326157,1009.190161,0.000359,-0.000365,-0.000117,-0.998718596,0.0149433,-0.02715175,0.03999605,-0.053090714,0.032025697,3.062390983,13.0,-0.038921881,-0.000597,-0.001291302,-63.59090909,3959.787879,-725.8305844,653.8199966,1738.701136,1,1,1,1,0,99.0,5500.0,1
13,45.0,1.5,1.597683668,11.47500038,0.740991592,267.5128784,106.0,127.3653614,36.3742489,0.0,9.747212315,-0.312931715,0.517163363,9.787889147,-0.316566281,0.517105141,-0.358821869,1009.20022,0.000114,-2.87e-05,6.6e-05,-0.998719049,0.0150787,-0.02700325,0.04003235,-0.052782048,0.032286385,3.062320411,13.0,-0.043549776,0.00243742,0.000776,-63.59090909,3959.787879,-725.8905855,653.6717565,1738.77524,1,1,1,1,0,99.0,5500.0,1
14,45.0,1.5,1.597683668,11.47500038,0.740991592,267.5128784,106.0,127.3653614,36.3742489,0.0,9.745656204,-0.312812005,0.518480206,9.787894106,-0.314870052,0.518046349,-0.345346069,1009.198608,0.000145,-0.000151,4.89e-06,-0.998716098,0.01498825,-0.0270489,0.04010875,-0.052877915,0.032113329,3.062164402,13.0,-0.042956114,-0.000695,0.00282813,-63.59090909,3959.787879,-725.8237343,653.6512375,1738.972466,1,1,1,1,0,99.0,5500.0,1
15,45.0,1.5,1.597683668,11.47500038,0.740991592,267.5128784,106.0,127.3653614,36.3742489,0.0,9.745895672,-0.313769718,0.515726784,9.787831593,-0.316293079,0.518358952,-0.299105835,1009.192969,0.000253,0.000161,-0.000109,-0.998711807,0.01505825,-0.02706885,0.04017925,-0.0529101,0.032258512,3.062027454,13.0,-0.042654276,0.001206513,-0.002153301,-63.59090909,3959.787879,-725.862337,653.7564625,1738.84938,1,1,1,1,0,99.0,5500.0,1
16,45.0,1.5,1.668575048,11.47399998,0.310675621,82.48126984,106.0,127.3653828,36.374251,0.0,9.743381596,-0.313410573,0.514170521,9.787777996,-0.316824816,0.519045553,-0.292764664,1009.192236,-1.1e-05,-0.000158,-0.000126,-0.9987073,0.01508185,-0.02710615,0.04025715,-0.052980342,0.032312762,3.061873925,13.5,-0.039727497,-5.75e-05,-0.001403341,-63.59090909,3959.787879,-725.7352762,653.6682237,1738.895249,1,1,1,1,0,99.0,5500.0,1
17,45.0,1.5,1.668575048,11.47399998,0.310675621,82.48126984,106.0,127.3653828,36.374251,0.0,9.748409653,-0.316044278,0.517283079,9.787900543,-0.314909579,0.517901242,-0.241505051,1009.186108,8.06e-05,0.00033,-0.000156,-0.998709708,0.0149862,-0.027044,0.0402698,-0.052863096,0.032117361,3.061841738,13.5,-0.043680954,0.002337003,-0.004449007,-63.59090909,3959.787879,-725.846241,653.7674904,1738.713707,1,1,1,1,0,99.0,5500.0,1
18,45.0,1.5,1.668575048,11.47399998,0.310675621,82.48126984,106.0,127.3653828,36.374251,0.0,9.746973038,-0.315445708,0.516325361,9.787926626,-0.315379147,0.517119423,-0.276118088,1009.190308,5.01e-05,-0.000311,-0.000217,-0.998708749,0.01501055,-0.02700575,0.04031345,-0.052783303,0.032165269,3.061754382,13.5,-0.037362146,0.002447429,-0.002230629,-63.59090909,3959.787879,-725.9294003,653.6964542,1738.842314,1,1,1,1,0,99.0,5500.0,1
19,45.0,1.5,1.668575048,11.47399998,0.310675621,82.48126984,106.0,127.3653828,36.374251,0.0,9.749726486,-0.315804847,0.518001354,9.78783474,-0.316153501,0.518382561,-0.271362686,1009.189771,5.01e-05,-0.00028,-6.48e-05,-0.998706153,0.01504725,-0.0270719,0.040320799,-0.052912489,0.032244271,3.061743689,13.5,-0.035354757,-0.00013,-0.002536055,-63.59090909,3959.787879,-725.9505795,653.7635103,1738.895256,1,1,1,1,0,99.0,5500.0,1
20,45.0,1.5,1.668575048,11.47399998,0.310675621,82.48126984,106.0,127.3653828,36.374251,0.0,9.749965906,-0.310298015,0.517761922,9.78791666,-0.315320368,0.517345592,-0.299370575,1009.193066,1.95e-05,-0.000341,-0.000126,-0.998706749,0.01500595,-0.0270178,0.04035565,-0.052806399,0.032159271,3.061670101,13.5,-0.035197306,0.001550652,-0.001139933,-63.59090909,3959.787879,-725.7637367,653.4824829,1738.799965,1,1,1,1,0,99.0,5500.0,1
21,45.0,1.5,1.668575048,11.47399998,0.310675621,82.48126984,106.0,127.3653828,36.374251,0.0,9.747811127,-0.308741739,0.51464937,9.787971592,-0.314074263,0.517060924,-0.364370346,1009.200781,8.06e-05,-0.000677,-6.48e-05,-0.9987057,0.01494135,-0.0270016,0.04041685,-0.0527771,0.032032139,3.061543787,13.5,-0.03309741,-0.000414,-0.000257,-63.59090909,3959.787879,-725.7741053,653.6964578,1738.768196,1,1,1,1,0,99.0,5500.0,1
22,45.0,1.5,1.731866717,11.47599983,0.133195445,79.81923676,106.0,127.3653898,36.374252,0.0,9.748170185,-0.311854297,0.514409935,9.787961721,-0.314447024,0.517021048,-0.31337471,1009.194702,0.000143,0.000351,-8.26e-05,-0.998702955,0.0149588,-0.02700125,0.04047725,-0.052773091,0.03207017,3.061423767,13.5,-0.039552069,0.00103645,-0.001174539,-63.59090909,3959.787879,-725.7529297,653.5446885,1738.683486,1,1,1,1,0,99.0,5500.0,1
23,45.0,1.5,1.731866717,11.47599983,0.133195445,79.81923676,106.0,127.3653898,36.374252,0.0,9.747811031,-0.315685134,0.515128225,9.787832022,-0.316204612,0.518404615,-0.282987976,1009.191064,6.9e-05,-0.000108,2.81e-05,-0.998697662,0.0150442,-0.02707625,0.0405278,-0.05291475,0.032249486,3.061329269,13.5,-0.037866116,0.001596899,-0.002677821,-63.59090909,3959.787879,-725.8012314,653.628746,1738.773705,1,1,1,1,0,99.0,5500.0,1
24,45.0,1.5,1.731866717,11.47599983,0.133195445,79.81923676,106.0,127.3653898,36.374252,0.0,9.753078413,-0.31388943,0.516804221,9.787864113,-0.314183971,0.519030017,-0.264228439,1009.188843,0.00013,0.000381,-0.000155,-0.998696348,0.0149385,-0.0271047,0.04057965,-0.052978294,0.032043332,3.061221051,13.5,-0.038736248,0.001491682,-0.00067,-63.59090909,3959.787879,-725.8129272,653.788226,1738.736429,1,1,1,1,0,99.0,5500.0,1
25,45.0,1.5,1.731866717,11.47599983,0.133195445,79.81923676,106.0,127.3653898,36.374252,0.0,9.75403614,-0.313769716,0.512374806,9.787975311,-0.313682517,0.517222899,-0.253131104,1009.187549,0.000558,0.000167,-0.000125,-0.998692003,0.0149118,-0.02701415,0.04075885,-0.052793582,0.031992172,3.06085813,13.5,-0.038608074,0.001229654,0.002813591,-63.59090909,3959.787879,-725.8588149,653.6435116,1738.803474,1,1,1,1,0,99.0,5500.0,1
26,45.0,1.5,1.731866717,11.47599983,0.133195445,79.81923676,106.0,127.3653898,36.374252,0.0,9.752360201,-0.312333149,0.515367654,9.787985849,-0.313670893,0.517038068,-0.307033157,1009.194019,0.000436,-0.000322,-0.0004,-0.99868615,0.0149076,-0.0270069,0.0409062,-0.052774694,0.031990986,3.060562718,13.5,-0.035745478,0.000859,-0.002149269,-63.59090909,3959.787879,-725.7862358,653.55373,1738.766205,1,1,1,1,0,99.0,5500.0,1
27,45.0,1.5,1.692474723,11.47500038,0.179274544,272.3473206,106.0,127.3653788,36.3742523,0.0,9.749965858,-0.31365,0.512973382,9.787868452,-0.312883398,0.519731948,-0.275590134,1009.19021,0.000436,-0.000383,-0.000125,-0.998677802,0.0148584,-0.02714455,0.04103435,-0.053049785,0.031910642,3.060308111,13.5,-0.03251543,-0.004118587,0.003177673,-63.59090909,3959.787879,-725.7282176,653.4458582,1739.128188,1,1,1,1,0,99.0,5500.0,1
28,45.0,1.5,1.692474723,11.47500038,0.179274544,272.3473206,106.0,127.3653788,36.3742523,0.0,9.753198099,-0.313290861,0.516564786,9.787817812,-0.313864054,0.520093679,-0.316809845,1009.195142,0.000252,-0.000444,-9.41e-05,-0.998672599,0.01490505,-0.0271665,0.0411297,-0.053086911,0.032010693,3.060120285,13.5,-0.033542204,-0.000145,-0.003888029,-63.59090909,3959.787879,-725.7211591,653.6823371,1738.803474,1,1,1,1,0,99.0,5500.0,1
29,45.0,1.5,1.692474723,11.47500038,0.179274544,272.3473206,106.0,127.3653788,36.3742523,0.0,9.754634762,-0.316762559,0.508424251,9.7882617,-0.313149926,0.512036969,-0.312052917,1009.194556,3.85e-05,-0.00023,0.000211,-0.99867985,0.01488265,-0.0267556,0.0412328,-0.052263692,0.031937836,3.059899735,13.5,-0.035662174,-0.006366049,0.000817,-63.59090909,3959.787879,-725.594986,653.7599907,1738.837463,1,1,1,1,0,99.0,5500.0,1
30,45.0,1.5,1.692474723,11.47500038,0.179274544,272.3473206,106.0,127.3653788,36.3742523,0.0,9.748409748,-0.321551108,0.520515345,9.787378645,-0.317266731,0.525997588,-0.263699722,1009.188794,0.000344,0.000228,2.81e-05,-0.998652107,0.01506,-0.0274783,0.04135665,-0.053690809,0.032357852,3.059684217,13.5,-0.021251345,0.015827536,-0.006799102,-63.59090909,3959.787879,-725.5905798,653.6329274,1739.032902,1,1,1,1,0,99.0,5500.0,1
31,45.0,1.5,1.692474723,11.47500038,0.179274544,272.3473206,106.0,127.3653788,36.3742523,0.0,9.758705091,-0.317361127,0.515487361,9.78803401,-0.312414131,0.516884273,-0.274269104,1009.190015,0.000283,0.000258,-6.35e-05,-0.99866446,0.01482875,-0.0270047,0.04146475,-0.052758766,0.031862766,3.059440625,13.5,-0.026216507,0.002116114,-0.003192613,-63.59090909,3959.787879,-725.5941054,653.6082225,1738.79643,1,1,1,1,0,99.0,5500.0,1
32,45.0,1.5,1.698613524,11.48200035,0.198941082,83.27288055,106.0,127.3653909,36.3742534,0.0,9.762416172,-0.316044274,0.513093096,9.78799324,-0.313600995,0.516944498,-0.34666748,1009.19873,0.000161,0.000869,2.81e-05,-0.998659599,0.0148866,-0.0270117,0.0415581,-0.052765122,0.031983853,3.059256899,13.5,-0.036231613,0.001746699,0.000219,-63.59090909,3959.787879,-725.6249809,653.6962433,1738.616219,1,1,1,1,0,99.0,5500.0,1
33,45.0,1.5,1.698613524,11.48200035,0.198941082,83.27288055,106.0,127.3653909,36.3742534,0.0,9.758585358,-0.310178302,0.518480209,9.788022375,-0.313199615,0.51662637,-0.337947845,1009.197656,0.000252,0.000411,-6.35e-05,-0.998654845,0.0148634,-0.0269965,0.0416844,-0.052732554,0.031942904,3.059002399,13.5,-0.03039484,0.000986,-0.001977003,-63.59090909,3959.787879,-725.5517435,653.5482142,1738.679975,1,1,1,1,0,99.0,5500.0,1
34,45.0,1.5,1.698613524,11.48200035,0.198941082,83.27288055,106.0,127.3653909,36.3742534,0.0,9.752599573,-0.311974007,0.514529656,9.788013124,-0.313779524,0.516454044,-0.326849747,1009.196362,7.94e-06,0.000625,-0.000155,-0.998649949,0.01489025,-0.02699065,0.04179795,-0.052715047,0.032002068,3.058776271,13.5,-0.032899523,-0.000349,0.001906455,-63.59090909,3959.787879,-725.6329274,653.5341007,1738.849358,1,1,1,1,0,99.0,5500.0,1
35,45.0,1.5,1.698613524,11.48200035,0.198941082,83.27288055,106.0,127.3653909,36.3742534,0.0,9.75523324,-0.312093721,0.514050803,9.78801918,-0.312919785,0.516863239,-0.264757538,1009.188965,0.000344,0.000686,-9.41e-05,-0.998642907,0.01484095,-0.0270122,0.0419684,-0.052756703,0.031914355,3.058433247,13.5,-0.031708384,0.000467,-0.004967278,-63.59090909,3959.787879,-725.6812363,653.5012245,1738.563721,1,1,1,1,0,99.0,5500.0,1
36,45.0,1.5,1.698613524,11.48200035,0.198941082,83.27288055,106.0,127.3653909,36.3742534,0.0,9.753078556,-0.310178305,0.515008515,9.788022709,-0.314018561,0.516123712,-0.30280571,1009.193457,3.85e-05,0.000228,-0.000155,-0.9986379,0.0148953,-0.02697865,0.0420881,-0.05268134,0.032026456,3.058195245,13.5,-0.033866787,-0.001666573,-0.000157,-63.59090909,3959.787879,-725.6576251,653.6541066,1738.79643,1,1,1,1,0,99.0,5500.0,1
37,45.0,1.5,1.679382086,11.47700024,0.240011141,265.3267212,106.0,127.3653763,36.3742524,0.0,9.750085592,-0.314368284,0.517761932,9.788079071,-0.312772055,0.515815258,-0.229614258,1009.184741,0.000405,0.000106,-9.41e-05,-0.998634404,0.01482925,-0.02696195,0.0422054,-0.052649613,0.031899284,3.057956612,13.5,-0.034641457,0.001037475,-0.002602448,-63.59090909,3959.787879,-725.6399787,653.6258724,1738.909381,1,1,1,1,0,99.0,5500.0,1
38,45.0,1.5,1.679382086,11.47700024,0.240011141,265.3267212,106.0,127.3653763,36.3742524,0.0,9.754754543,-0.315685137,0.51285367,9.787995863,-0.314407918,0.516399193,-0.287744522,1009.19165,0.000344,-0.000169,5.86e-05,-0.998626655,0.01490775,-0.0269973,0.04233995,-0.05270955,0.03206618,3.057692325,13.5,-0.033241415,0.000638,0.001123303,-63.59090909,3959.787879,-725.7412338,653.6062279,1738.713722,1,1,1,1,0,99.0,5500.0,1
39,45.0,1.5,1.679382086,11.47700024,0.240011141,265.3267212,106.0,127.3653763,36.3742524,0.0,9.759662676,-0.31161487,0.515367654,9.788011408,-0.313954215,0.516382444,-0.27347641,1009.189966,0.000222,0.000564,-2.44e-06,-0.998622057,0.0148815,-0.0269972,0.04245685,-0.052707761,0.03201989,3.057456982,13.5,-0.031221819,0.00233935,-0.001972502,-63.59090909,3959.787879,-725.707042,653.5340935,1738.722304,1,1,1,1,0,99.0,5500.0,1
40,45.0,1.5,1.679382086,11.47700024,0.240011141,265.3267212,106.0,127.3653763,36.3742524,0.0,9.7559515,-0.310058591,0.512135383,9.788058662,-0.313495177,0.515768611,-0.351688004,1009.199316,0.00013,0.000228,-0.000369,-0.998619354,0.01485685,-0.0269663,0.04255195,-0.05264497,0.031973059,3.057264471,13.5,-0.027917099,0.000563,-0.002436091,-64.28169014,3951.126761,-725.2552813,653.5129215,1740.801133,1,1,1,1,0,99.0,5500.0,1
41,45.0,1.5,1.679382086,11.47700024,0.240011141,265.3267212,106.0,127.3653763,36.3742524,0.0,9.785640574,-0.31173458,0.51464937,9.788127804,-0.312776978,0.514887559,-0.278496933,1009.190601,0.000382,0.000706,-0.000172,-0.998615053,0.0148183,-0.0269219,0.04269425,-0.052554834,0.031899785,3.056976223,13.5,-0.000931,0.002718386,-0.000478,-64.28169014,3951.126761,-725.4224815,653.6587334,1740.146217,1,1,1,1,0,99.0,5500.0,1
42,45.0,1.5,1.679382086,11.47700024,0.240011141,265.3267212,106.0,127.3653763,36.3742524,0.0,9.800844193,-0.310178302,0.521473056,9.78807025,-0.311468852,0.516770062,-0.394228363,1009.20437,-5.56e-05,0.000463,-0.000188,-0.998612145,0.0147467,-0.0270155,0.042725799,-0.052746936,0.031766326,3.05691241,13.5,0.014449883,0.000333,-0.002120699,-64.28169014,3951.126761,-725.3223338,653.5941018,1740.109375,1,1,1,1,0,99.0,5500.0,1
43,45.0,1.5,1.579972029,11.47599983,0.684067607,78.86420441,106.0,127.365423,36.3742598,0.0,9.801801872,-0.310178302,0.523747617,9.787865639,-0.311376373,0.520686942,-0.309675217,1009.194263,-0.000147,-8.67e-05,-0.000126,-0.99860855,0.01473455,-0.0272145,0.0426879,-0.053147093,0.031756891,3.056993985,13.5,0.015612221,0.00036,-0.001009601,-64.28169014,3951.126761,-725.6611615,653.5799848,1739.149357,1,1,1,1,0,99.0,5500.0,1
44,45.0,1.5,1.579972029,11.47599983,0.684067607,78.86420441,106.0,127.365423,36.3742598,0.0,9.783485699,-0.311614873,0.519198489,9.787964916,-0.31166798,0.51864256,-0.260793304,1009.188477,-0.000178,0.000219,-9.59e-05,-0.998615146,0.01475645,-0.02710945,0.04259135,-0.052938275,0.031786641,3.057185042,13.5,-0.004838324,0.000771,-0.004352328,-64.28169014,3951.126761,-725.688736,653.8949928,1738.769958,1,1,1,1,0,99.0,5500.0,1
45,45.0,1.5,1.579972029,11.47599983,0.684067607,78.86420441,106.0,127.365423,36.3742598,0.0,9.764570951,-0.313889429,0.515487367,9.787807035,-0.312913494,0.520866987,-0.315752792,1009.19502,-0.000295,-8.52e-05,0.00012,-0.998614949,0.0148175,-0.02722435,0.042505,-0.053165754,0.031913713,3.057364666,13.5,-0.018687057,-0.00145479,-0.00095,-64.28169014,3951.126761,-725.8446907,653.7564625,1738.605857,1,1,1,1,0,99.0,5500.0,1
46,45.0,1.5,1.579972029,11.47599983,0.684067607,78.86420441,106.0,127.365423,36.3742598,0.0,9.757986689,-0.313769713,0.517761931,9.78790884,-0.314039782,0.518265605,-0.364106369,1009.20083,-0.000115,-2.57e-05,7.15e-05,-0.9986191,0.0148816,-0.02709355,0.0424648,-0.052900174,0.032028621,3.057444167,13.5,-0.023457623,0.001586917,-0.004933089,-64.28169014,3951.126761,-725.8905783,653.7141077,1738.679953,1,1,1,1,0,99.0,5500.0,1
47,45.0,1.5,1.525406361,11.47799969,0.142482162,59.95578003,106.0,127.3654274,36.3742623,0.0,9.757867002,-0.313171148,0.515966222,9.787884951,-0.315555064,0.51780051,-0.295407867,1009.192578,7.33e-06,-8.67e-05,0.000102,-0.998616803,0.01495875,-0.02707375,0.04250505,-0.052852917,0.032183217,3.057366848,13.5,-0.030496788,0.000947,-0.001116005,-64.28169014,3951.126761,-725.7337227,653.8087387,1738.796204,1,1,1,1,0,99.0,5500.0,1
48,45.0,1.5,1.525406361,11.47799969,0.142482162,59.95578003,106.0,127.3654274,36.3742623,0.0,9.759303522,-0.314128859,0.518719634,9.787954235,-0.315455356,0.516553214,-0.235955811,1009.185449,0.000191,0.000249,0.000102,-0.998617601,0.01495575,-0.02701025,0.04252725,-0.052725467,0.032173044,3.057320178,10.0,-0.029249287,-0.000948,0.000371,-64.28169014,3951.126761,-725.7211663,653.7811638,1738.923476,1,1,1,1,0,99.0,5500.0,1
49,45.0,1.5,1.525406361,11.47799969,0.142482162,59.95578003,106.0,127.3654274,36.3742623,0.0,9.755592442,-0.309460023,0.512494528,9.787945127,-0.314670371,0.517204177,-0.253923798,1009.187622,-0.000145,0.000524,0.000102,-0.998617998,0.01491465,-0.02704155,0.04251555,-0.052791838,0.032092956,3.057342589,7.0,-0.032472467,0.000661,-0.0015971,-64.28169014,3951.126761,-725.5799848,653.4917495,1738.637609,1,1,1,1,0,99.0,5500.0,1
50,45.0,1.5,1.525406361,11.47799969,0.142482162,59.95578003,106.0,127.3654274,36.3742623,0.0,9.75403614,-0.315086564,0.516085932,9.787914705,-0.314989746,0.517585301,-0.337683105,1009.197607,0.000363,0.000195,0.000137,-0.998616248,0.01492955,-0.027062,0.042536201,-0.052830832,0.03212554,3.057302654,7.0,-0.036153078,0.000621,0.00101462,-64.28169014,3951.126761,-725.8199921,653.6774826,1738.616211,1,1,1,1,0,99.0,5500.0,1
51,45.0,1.5,1.525406361,11.47799969,0.142482162,59.95578003,106.0,127.3654274,36.3742623,0.0,9.760380936,-0.311016302,0.519437918,9.787946892,-0.312955147,0.518207857,-0.218517303,1009.183325,8.86e-05,0.00047,-0.000168,-0.998614955,0.0148232,-0.02709,0.04258405,-0.052894085,0.031917962,3.057202375,7.0,-0.031755924,0.00397398,-0.006311902,-64.28169014,3951.126761,-725.6540886,653.7388126,1738.941133,1,1,1,1,0,99.0,5500.0,1
52,0.0,1.5,1.482662916,11.47599983,0.045710273,0.0,106.0,127.3654297,36.3742618,0.0,9.758585262,-0.314727426,0.516085932,9.787927008,-0.313975373,0.517968839,-0.283252716,1009.191089,0.000119,0.000225,-0.000199,-0.998611653,0.0148739,-0.02708105,0.042651201,-0.052869841,0.03202205,3.057070243,7.0,-0.030419207,-0.002428043,-0.000925,-64.28169014,3951.126761,-725.7211627,653.6717565,1738.807014,1,1,1,1,0,99.0,5500.0,1
53,0.0,1.5,1.482662916,11.47599983,0.045710273,0.0,106.0,127.3654297,36.3742618,0.0,9.7559515,-0.309819159,0.516684508,9.787938452,-0.313519226,0.518027574,-0.2716259,1009.189746,8.86e-05,0.000286,-0.000137,-0.99861035,0.0148495,-0.0270836,0.04268885,-0.052875762,0.031975512,3.056993711,10.0,-0.027437687,-0.00061,-0.003617623,-64.28169014,3951.126761,-725.7037354,653.7224884,1738.732468,1,1,1,1,0,99.0,5500.0,1
54,0.0,1.5,1.482662916,11.47599983,0.045710273,0.0,106.0,127.3654297,36.3742618,0.0,9.756310797,-0.311016299,0.518599924,9.787926579,-0.313286681,0.518393084,-0.290387344,1009.191968,-9.65e-06,0.000266,-0.000284,-0.998610303,0.014837,-0.02710165,0.04268355,-0.052913067,0.031951787,3.057004261,12.5,-0.028862381,0.00215067,-0.004581711,-64.28169014,3951.126761,-725.6188103,653.6505773,1738.95525,1,1,1,1,0,99.0,5500.0,1
55,0.0,1.5,1.482662916,11.47599983,0.045710273,0.0,106.0,127.3654297,36.3742618,0.0,9.764690733,-0.312931719,0.516445076,9.788028622,-0.311837073,0.517334768,-0.286159515,1009.191504,5.07e-05,-0.000167,0.000114,-0.9986114,0.01476455,-0.02704495,0.0427148,-0.052804694,0.031803893,3.05693624,12.5,-0.028006792,-0.000137,-0.003523397,-64.28169014,3951.126761,-725.5729191,653.6576323,1738.672902,1,1,1,1,0,99.0,5500.0,1
56,0.0,1.5,1.482662916,11.47599983,0.045710273,0.0,106.0,127.3654297,36.3742618,0.0,9.760859776,-0.311375441,0.516445073,9.787942791,-0.312296236,0.51868116,-0.279553223,1009.190625,0.000142,0.000169,-6.9e-05,-0.998606652,0.01478335,-0.02711555,0.0427771,-0.052942328,0.031850738,3.056814742,12.5,-0.029596949,-0.000995,-0.00056,-64.28169014,3951.126761,-725.7449837,653.6099777,1738.661209,1,1,1,1,0,99.0,5500.0,1
57,45.0,1.5,1.44516325,11.47599983,0.113898709,248.0179901,106.0,127.3654234,36.3742598,0.0,9.759902048,-0.310896584,0.513212806,9.78805151,-0.313041329,0.516173184,-0.23093605,1009.184888,5.07e-05,0.00023,8.37e-05,-0.998608255,0.0148259,-0.02698975,0.04280885,-0.052686225,0.031926755,3.056749344,12.5,-0.027191591,0.001546173,0.000272,-64.28169014,3951.126761,-725.6082225,653.583514,1738.799955,1,1,1,1,0,99.0,5500.0,1
58,45.0,1.5,1.44516325,11.47599983,0.113898709,248.0179901,106.0,127.3654234,36.3742598,0.0,9.754395342,-0.315804848,0.516325358,9.787933445,-0.314163324,0.517731184,-0.286159134,1009.191479,0.000169,4.63e-05,-9.65e-06,-0.998602691,0.01487825,-0.0270725,0.04286305,-0.052845593,0.032041226,3.056646061,12.5,-0.029826975,-0.00200067,3.07e-05,-64.28169014,3951.126761,-725.5340935,653.5905726,1738.821145,1,1,1,1,0,99.0,5500.0,1
59,45.0,1.5,1.44516325,11.47599983,0.113898709,248.0179901,106.0,127.3654234,36.3742598,0.0,9.760979557,-0.311495154,0.513093096,9.787895393,-0.312569547,0.519408837,-0.295143127,1009.192529,0.000221,0.000313,-0.000186,-0.998598152,0.01479105,-0.0271558,0.04294835,-0.053016719,0.031878622,3.056473589,12.5,-0.029908657,0.004665808,-0.003083473,-64.28169014,3951.126761,-725.6999817,653.523735,1738.766205,1,1,1,1,0,99.0,5500.0,1
60,45.0,1.5,1.44516325,11.47599983,0.113898709,248.0179901,106.0,127.3654234,36.3742598,0.0,9.762296438,-0.313889429,0.517402789,9.787951994,-0.313323435,0.517889497,-0.321829987,1009.195728,-5.38e-05,0.000252,-0.000216,-0.998598647,0.0148322,-0.0270803,0.04296975,-0.052861622,0.031955537,3.056430364,12.5,-0.026373863,-0.001643419,-0.002641556,-64.28169014,3951.126761,-725.548225,653.6752858,1738.969375,1,1,1,1,0,99.0,5500.0,1
61,45.0,1.5,1.44516325,11.47599983,0.113898709,248.0179901,106.0,127.3654234,36.3742598,0.0,9.761578083,-0.312812003,0.517402783,9.787992668,-0.313568935,0.516971734,-0.335569763,1009.197388,-0.000115,-0.000145,-2.44e-06,-0.998600298,0.01484715,-0.0270338,0.04295355,-0.052767901,0.031980583,3.056462085,12.5,-0.026534414,0.004228629,-0.004477206,-64.28169014,3951.126761,-725.5376336,653.5023301,1738.863497,1,1,1,1,0,99.0,5500.0,1
62,0.0,1.5,1.405439496,11.47599983,0.09116327,0.0,106.0,127.3654288,36.3742588,0.0,9.766845608,-0.310178304,0.518121073,9.787953043,-0.311717921,0.518839166,-0.332663345,1009.19707,-9.18e-05,-0.000147,-2.44e-06,-0.998599601,0.0147489,-0.02712485,0.04294755,-0.05295837,0.031791736,3.056472063,12.5,-0.021107483,0.000462,0.000359,-64.28169014,3951.126761,-725.6174774,653.6024895,1738.788719,1,1,1,1,0,99.0,5500.0,1
63,0.0,1.5,1.405439496,11.47599983,0.09116327,0.0,106.0,127.3654288,36.3742588,0.0,9.758944416,-0.313171147,0.517761919,9.787879276,-0.314280295,0.518682098,-0.300691605,1009.193188,1.77e-05,-0.000178,0.000181,-0.998599049,0.0148807,-0.02712205,0.04291645,-0.052942766,0.032053159,3.056540859,12.5,-0.025104094,-0.004996255,-0.002356729,-64.28169014,3951.126761,-725.6152739,653.7776382,1738.679953,1,1,1,1,0,99.0,5500.0,1
64,0.0,1.5,1.405439496,11.47599983,0.09116327,0.0,106.0,127.3654288,36.3742588,0.0,9.759902143,-0.309938875,0.514409946,9.788055706,-0.313438475,0.51585421,-0.28378067,1009.191162,-7.39e-05,-0.000636,-2.44e-06,-0.998603705,0.01484405,-0.0269759,0.042912049,-0.052653705,0.031967274,3.056543183,7.5,-0.028752089,0.003379887,0.001668289,-64.28169014,3951.126761,-725.7317577,653.6823515,1738.531731,1,1,1,1,0,99.0,5500.0,1
65,0.0,1.5,1.405439496,11.47599983,0.09116327,0.0,106.0,127.3654288,36.3742588,0.0,9.764331484,-0.313051434,0.513931087,9.788024807,-0.312467207,0.517028132,-0.272418976,1009.189844,-0.000227,-2.5e-05,5.86e-05,-0.998604307,0.01479285,-0.02703315,0.0428803,-0.052773473,0.031868181,3.056605983,6.5,-0.027404356,-0.000225,-0.000942,-64.28169014,3951.126761,-725.7149849,653.7262344,1739.002464,1,1,1,1,0,99.0,5500.0,1
66,0.0,1.5,1.405439496,11.47599983,0.09116327,0.0,106.0,127.3654288,36.3742588,0.0,9.765768099,-0.308861451,0.515846512,9.78800025,-0.312977031,0.51718846,-0.302276993,1009.193359,-4.29e-05,0.000171,-0.000186,-0.998603603,0.0148184,-0.0270425,0.0428836,-0.052789939,0.031920195,3.056601,6.5,-0.021154594,0.000764,-2.51e-05,-64.28169014,3951.126761,-725.6788043,653.3717436,1738.930564,1,1,1,1,0,99.0,5500.0,1
67,45.0,1.5,1.36978066,11.47599983,0.159860566,68.22909546,106.0,127.3654374,36.3742617,0.0,9.765289211,-0.31329086,0.516923928,9.788022089,-0.312105924,0.517302021,-0.301748276,1009.193335,3.48e-05,9.16e-06,-2.44e-06,-0.9986013,0.01477195,-0.02704735,0.04295,-0.052801392,0.031831322,3.056465888,6.333333333,-0.015669775,-0.000826,0.001896468,-64.28169014,3951.126761,-725.6258581,653.5905798,1739.00466,1,1,1,1,0,99.0,5500.0,1
68,45.0,1.5,1.36978066,11.47599983,0.159860566,68.22909546,106.0,127.3654374,36.3742617,0.0,9.766007519,-0.312931722,0.515846513,9.787952757,-0.312119323,0.518601763,-0.316017151,1009.195068,0.000401,0.000101,8.92e-05,-0.99859761,0.01476855,-0.02711435,0.04299635,-0.052934185,0.031832688,3.056375062,6.5,-0.024459219,-0.003086957,-0.001917261,-64.28169014,3951.126761,-725.7449837,653.5162315,1738.736214,1,1,1,1,0,99.0,5500.0,1
69,45.0,1.5,1.36978066,11.47599983,0.159860566,68.22909546,106.0,127.3654374,36.3742617,0.0,9.760859871,-0.311495155,0.517163362,9.787967253,-0.313340327,0.517593655,-0.284574127,1009.191284,0.000432,0.000284,8.92e-05,-0.99859575,0.0148317,-0.02706635,0.04304375,-0.052831398,0.03195726,3.056281757,7.0,-0.028663635,0.000768,0.001125987,-64.28169014,3951.126761,-725.7246955,653.6929285,1738.627025,1,1,1,1,0,99.0,5500.0,1
70,45.0,1.5,1.36978066,11.47599983,0.159860566,68.22909546,106.0,127.3654374,36.3742617,0.0,9.764331532,-0.314847139,0.515607083,9.788025284,-0.313026264,0.516682592,-0.246525192,1009.186694,0.000176,-4.73e-05,3.27e-05,-0.998592401,0.01481455,-0.0270209,0.0431592,-0.052738265,0.031925219,3.056048381,6.5,-0.023095274,-0.001342019,0.001558197,-64.28169014,3951.126761,-725.6258653,653.6682237,1738.683493,1,1,1,1,0,99.0,5500.0,1
71,45.0,1.5,1.36978066,11.47599983,0.159860566,68.22909546,106.0,127.3654374,36.3742617,0.0,9.759303522,-0.313051432,0.514409947,9.787985182,-0.314121765,0.516780019,-0.339533234,1009.1979,-0.000104,-0.000308,7.7e-05,-0.998592803,0.0148711,-0.0270278,0.0431252,-0.052748408,0.032036986,3.056119466,6.333333333,-0.025808525,0.002387184,-0.000694,-64.28169014,3951.126761,-725.7562294,653.4824829,1738.631226,1,1,1,1,0,99.0,5500.0,1
72,45.0,1.5,1.362358451,11.47599983,0.183966383,292.5076904,106.0,127.3654269,36.3742649,0.0,9.76325407,-0.311255725,0.513332522,9.787986374,-0.313665409,0.517029375,-0.259207535,1009.188281,1.83e-05,-0.000247,-1.47e-05,-0.998593646,0.01484775,-0.02703925,0.0431083,-0.052773806,0.031990426,3.056152523,6.5,-0.02269721,-0.001780298,0.000254,-64.28169014,3951.126761,-725.6470373,653.6576323,1738.648193,1,1,1,1,0,99.0,5500.0,1
73,45.0,1.5,1.362358451,11.47599983,0.183966383,292.5076904,106.0,127.3654269,36.3742649,0.0,9.761099291,-0.311255729,0.514050801,9.787987328,-0.314505938,0.516501272,-0.274533463,1009.190063,-0.000195,-0.000278,0.000169,-0.998593146,0.01489145,-0.02701435,0.0431193,-0.052719996,0.03207618,3.056131887,7.0,-0.02377553,0.001334789,-0.002929324,-64.28169014,3951.126761,-725.6082153,653.562342,1738.694085,1,1,1,1,0,99.0,5500.0,1
74,45.0,1.5,1.362358451,11.47599983,0.183966383,292.5076904,106.0,127.3654269,36.3742649,0.0,9.755831861,-0.313410576,0.516684501,9.787964535,-0.312306064,0.518266878,-0.28959465,1009.19187,0.000171,-0.000308,0.000291,-0.998591155,0.01477455,-0.0271,0.04315285,-0.052900002,0.031851741,3.056061625,6.333333333,-0.031055212,-0.00110451,-0.001821801,-64.28169014,3951.126761,-725.7299843,653.5537338,1738.777466,1,1,1,1,0,99.0,5500.0,1
75,45.0,1.5,1.362358451,11.47599983,0.183966383,292.5076904,106.0,127.3654269,36.3742649,0.0,9.761937189,-0.314248571,0.515008512,9.787990332,-0.313276955,0.517193082,-0.352479935,1009.199438,0.000232,0.000211,0.000108,-0.998591495,0.0148263,-0.02704745,0.0431561,-0.052790464,0.031950795,3.056055963,7.0,-0.022581339,0.002021231,0.003681397,-64.28169014,3951.126761,-725.5482106,653.6541102,1738.761137,1,1,1,1,0,99.0,5500.0,1
76,45.0,1.5,1.362358451,11.47599983,0.183966383,292.5076904,106.0,127.3654269,36.3742649,0.0,9.759902096,-0.312572579,0.519198489,9.787942219,-0.311023462,0.519455788,-0.239919662,1009.185913,-7.33e-05,-0.000186,-0.000228,-0.998592329,0.01470775,-0.02715715,0.04310975,-0.053021249,0.031720886,3.056146312,6.5,-0.023371315,-0.001549116,-0.003130424,-64.28169014,3951.126761,-725.6823407,653.5658641,1738.708209,1,1,1,1,0,99.0,5500.0,1
77,0.0,1.5,1.358748317,11.47599983,0.028002057,0.0,106.0,127.365426,36.3742655,0.0,9.757507944,-0.311495154,0.515247938,9.787960672,-0.31353514,0.517596874,-0.249431992,1009.187085,-7.15e-05,-1.89e-05,-9.83e-05,-0.998593456,0.01484025,-0.0270677,0.0430944,-0.052831764,0.031977135,3.056180859,6.5,-0.022432041,-0.000354,-0.000912,-64.28169014,3951.126761,-725.737484,653.7562447,1738.799965,1,1,1,1,0,99.0,5500.0,1
78,0.0,1.5,1.358748317,11.47599983,0.028002057,0.0,106.0,127.365426,36.3742655,0.0,9.760620356,-0.316642842,0.517761931,9.788015175,-0.313496023,0.516586715,-0.335041428,1009.19729,-7.15e-05,-0.000202,-0.000159,-0.998597199,0.0148419,-0.0270153,0.0430411,-0.052728552,0.031973144,3.056286001,6.5,-0.026197672,-0.000633,-0.002895056,-64.28169014,3951.126761,-725.5835105,653.6470445,1738.595265,1,1,1,1,0,99.0,5500.0,1
79,0.0,1.5,1.358748317,11.47599983,0.028002057,0.0,106.0,127.365426,36.3742655,0.0,9.765768051,-0.314128856,0.516445079,9.788000774,-0.313607772,0.51679332,-0.312317276,1009.194604,-0.000194,-0.000599,0.000115,-0.998601153,0.01484985,-0.0270246,0.04294115,-0.052749679,0.031984546,3.056486773,6.5,-0.021873474,0.001154906,-0.00178481,-64.28169014,3951.126761,-725.5870325,653.6046861,1738.732896,1,1,1,1,0,99.0,5500.0,1
80,0.0,1.5,1.358748317,11.47599983,0.028002057,0.0,106.0,127.365426,36.3742655,0.0,9.765169382,-0.312812005,0.514529657,9.788104677,-0.310100205,0.51694043,-0.286423492,1009.191528,-0.000102,-0.000477,-3.73e-05,-0.998608652,0.01467375,-0.0270227,0.0428298,-0.052764108,0.031626693,3.05670079,6.5,-0.02305479,-0.000557,0.000343,-62.84507042,3862.760563,-725.2162323,653.5387306,1741.019966,1,1,1,1,0,99.0,5500.0,1
81,0.0,1.5,1.358748317,11.47599983,0.028002057,0.0,106.0,127.365426,36.3742655,0.0,9.786717987,-0.312931719,0.519437921,9.787957668,-0.311975642,0.518590879,-0.299370193,1009.193066,-0.000104,-7.62e-05,-3.1e-05,-0.998606706,0.014767,-0.02711035,0.042784601,-0.052933048,0.03181803,3.056798744,6.5,0.000317,-0.000477,0.002642748,-62.84507042,3862.760563,-725.3470387,653.5164472,1740.158785,1,1,1,1,0,99.0,5500.0,1
82,0.0,1.5,1.358748317,11.47599983,0.028002057,0.0,106.0,127.365426,36.3742655,0.0,9.805393362,-0.313889429,0.51764221,9.787985563,-0.311993229,0.518057474,-0.335569382,1009.197412,2.81e-05,7.7e-05,0.000126,-0.998605958,0.0147681,-0.0270837,0.04281965,-0.052878555,0.031819824,3.056727779,6.0,0.020041466,0.000977,0.00150016,-62.84507042,3862.760563,-725.4246826,653.495268,1739.936452,1,1,1,1,0,99.0,5500.0,1
83,45.0,1.5,1.390424013,11.47700024,0.163648248,234.9187775,106.0,127.3654173,36.3742605,0.0,9.801682091,-0.309460022,0.519557637,9.787909555,-0.311375889,0.519862431,-0.30782547,1009.194067,0.000272,-0.00032,0.000279,-0.998603144,0.01473215,-0.0271747,0.0428406,-0.053062854,0.031756842,3.056686938,6.5,0.014850044,-0.001436117,0.00113177,-62.84507042,3862.760563,-725.6437263,653.5424805,1739.193703,1,1,1,1,0,99.0,5500.0,1
84,45.0,1.5,1.390424013,11.47700024,0.163648248,234.9187775,106.0,127.3654173,36.3742605,0.0,9.788274193,-0.313171144,0.518240783,9.787887478,-0.312467816,0.519620904,-0.249167252,1009.187012,-0.000186,-7.57e-05,0.000187,-0.998602945,0.0147886,-0.02716465,0.042830849,-0.053038367,0.031868244,3.056708944,7.0,0.00421772,-0.002020182,0.002211291,-62.84507042,3862.760563,-725.6999907,653.8446978,1738.616448,1,1,1,1,0,99.0,5500.0,1
85,45.0,1.5,1.390424013,11.47700024,0.163648248,234.9187775,106.0,127.3654173,36.3742605,0.0,9.773669195,-0.313769712,0.518599918,9.787758541,-0.314884675,0.520596364,-0.288536835,1009.191772,-0.000114,-7.2e-05,-0.000133,-0.998602301,0.0149113,-0.02721885,0.0427715,-0.053138446,0.032114821,3.056835711,6.5,-0.017201948,-0.00175817,-0.003073868,-62.84507042,3862.760563,-725.7035056,653.6541066,1738.736429,1,1,1,1,0,99.0,5500.0,1
86,45.0,1.5,1.390424013,11.47700024,0.163648248,234.9187775,106.0,127.3654173,36.3742605,0.0,9.764810419,-0.315565419,0.520754775,9.787721682,-0.315145814,0.521129346,-0.386037064,1009.203418,0.000162,-0.000341,1.16e-05,-0.998603448,0.01492485,-0.02724585,0.04272055,-0.053192945,0.032141463,3.056939232,6.5,-0.023509932,0.004488653,0.000104,-62.84507042,3862.760563,-725.6437263,653.6287308,1738.788712,1,1,1,1,0,99.0,5500.0,1
87,45.0,1.5,1.413628459,11.47900009,0.107736349,316.6532898,106.0,127.3654138,36.374264,0.0,9.763373756,-0.313769713,0.519318208,9.787908506,-0.312488855,0.519212174,-0.354857635,1009.199683,-0.000235,-0.000158,0.000103,-0.998609844,0.0147946,-0.02714165,0.04268215,-0.052996612,0.03187039,3.057006228,6.5,-0.024774122,0.000395,0.000106,-62.84507042,3862.760563,-725.6999907,653.7564625,1738.715253,1,1,1,1,0,99.0,5500.0,1
88,45.0,1.5,1.413628459,11.47900009,0.107736349,316.6532898,106.0,127.3654138,36.374264,0.0,9.76002183,-0.31616399,0.516804218,9.78784194,-0.314195138,0.519440117,-0.308090591,1009.194092,-0.000143,-0.000463,0.000348,-0.998610544,0.0148826,-0.0271562,0.04262645,-0.053020195,0.032044471,3.057122624,6.0,-0.027939796,0.002580272,-0.002037331,-62.84507042,3862.760563,-725.6258653,653.7035271,1738.754086,1,1,1,1,0,99.0,5500.0,1
89,45.0,1.5,1.413628459,11.47900009,0.107736349,316.6532898,106.0,127.3654138,36.374264,0.0,9.758226109,-0.310657157,0.519797069,9.787853909,-0.31309583,0.519872129,-0.34772377,1009.198877,2.14e-05,-0.000475,-5.42e-05,-0.9986128,0.01482685,-0.02717515,0.0425816,-0.053064142,0.031932315,3.057210183,6.0,-0.024001217,0.000882,-0.002589053,-62.84507042,3862.760563,-725.6287384,653.6587334,1738.807457,1,1,1,1,0,99.0,5500.0,1
90,45.0,1.5,1.413628459,11.47900009,0.107736349,316.6532898,106.0,127.3654138,36.374264,0.0,9.758345842,-0.317600554,0.518480209,9.787954855,-0.313812211,0.517539743,-0.258942795,1009.188281,0.000127,-0.000133,0.000209,-0.998615852,0.0148687,-0.0270576,0.042570299,-0.052825973,0.032005403,3.0572312,6.0,-0.029848385,0.001838204,-0.000496,-62.84507042,3862.760563,-725.6399859,653.6258689,1738.828211,1,1,1,1,0,99.0,5500.0,1
91,45.0,1.5,1.413628459,11.47900009,0.107736349,316.6532898,106.0,127.3654138,36.374264,0.0,9.763613224,-0.311375441,0.512135392,9.787950039,-0.315337232,0.516704264,-0.270041656,1009.189551,9.65e-05,8.12e-05,0.000117,-0.998615906,0.0149484,-0.02701825,0.04256435,-0.052740878,0.032160992,3.057245815,6.0,-0.020745325,0.002525227,0.001057664,-62.84507042,3862.760563,-725.6046789,653.5235093,1739.114078,1,1,1,1,0,99.0,5500.0,1
92,45.0,1.5,1.426621675,11.4829998,0.182064876,72.83081055,106.0,127.3654243,36.3742664,0.0,9.770317078,-0.315325996,0.517761925,9.787898827,-0.313937066,0.51852482,-0.302012634,1009.193408,4.89e-06,0.000142,-0.000249,-0.998616356,0.01487415,-0.02710745,0.0425258,-0.052926636,0.032018141,3.057322156,6.0,-0.020095587,-0.000312,-0.001002321,-62.84507042,3862.760563,-725.5162239,653.6324883,1739.148712,1,1,1,1,0,99.0,5500.0,1
93,45.0,1.5,1.426621675,11.4829998,0.182064876,72.83081055,106.0,127.3654243,36.3742664,0.0,9.770556688,-0.314847139,0.518360493,9.787809896,-0.315147354,0.519471404,-0.350101471,1009.199072,-5.62e-05,0.000234,-4.89e-06,-0.998617604,0.01493615,-0.0271571,0.042439751,-0.053023556,0.03214162,3.057499075,7.0,-0.017253399,-0.000897,-0.004702312,-62.84507042,3862.760563,-725.6540922,653.6046932,1738.651733,1,1,1,1,0,99.0,5500.0,1
94,45.0,1.5,1.426621675,11.4829998,0.182064876,72.83081055,106.0,127.3654243,36.3742664,0.0,9.769239664,-0.316882274,0.51596622,9.787847328,-0.315594549,0.518489724,-0.313902664,1009.1948,-0.000178,0.000234,-0.000371,-0.998622653,0.0149636,-0.0271066,0.0423459,-0.052923339,0.032187245,3.057686746,7.0,-0.022318745,0.003740254,-0.00144608,-62.84507042,3862.760563,-725.5129251,653.7388126,1738.796423,1,1,1,1,0,99.0,5500.0,1
95,45.0,1.5,1.426621675,11.4829998,0.182064876,72.83081055,106.0,127.3654243,36.3742664,0.0,9.766725826,-0.31365,0.516445076,9.787869215,-0.31506785,0.51839911,-0.3783741,1009.202539,-0.000148,-0.000224,2.57e-05,-0.998626348,0.014939,-0.0270997,0.04227025,-0.052913989,0.032133509,3.057836711,7.0,-0.022460365,-0.00241299,0.002714795,-62.84507042,3862.760563,-725.7337379,653.6924896,1738.683716,1,1,1,1,0,99.0,5500.0,1
96,45.0,1.5,1.426621675,11.4829998,0.182064876,72.83081055,106.0,127.3654243,36.3742664,0.0,9.767204666,-0.315685134,0.518001355,9.787951374,-0.314018302,0.5174779,-0.320772934,1009.195605,7.07e-05,-0.000454,5.71e-05,-0.998630351,0.0148887,-0.02704975,0.0422247,-0.052819691,0.032026429,3.057923758,7.0,-0.024936771,-0.002145691,-0.003905955,-62.84507042,3862.760563,-725.7105713,653.7423419,1738.750539,1,1,1,1,0,99.0,5500.0,1
97,0.0,1.5,1.435349584,11.4829998,0.0858123,0.0,106.0,127.3654281,36.3742641,0.0,9.761697721,-0.312692291,0.517043647,9.787877178,-0.3154273,0.518025997,-0.404533005,1009.205664,3.79e-05,-0.000233,5.74e-05,-0.998629948,0.0149602,-0.0270803,0.0421935,-0.052875932,0.032170181,3.057990813,7.0,-0.024742699,0.001059014,-0.002299204,-62.84507042,3862.760563,-725.6717457,653.6823407,1738.789378,1,1,1,1,0,99.0,5500.0,1
98,0.0,1.5,1.435349584,11.4829998,0.0858123,0.0,106.0,127.3654281,36.3742641,0.0,9.763972473,-0.314487995,0.51871964,9.787909317,-0.315296979,0.517502341,-0.426992035,1009.20835,-5.38e-05,-0.000356,-0.000156,-0.998629898,0.01495415,-0.0270536,0.0422129,-0.052822408,0.032156886,3.05795083,7.0,-0.024894619,-0.001226154,-0.002493832,-62.84507042,3862.760563,-725.7187386,653.6849785,1738.653694,1,1,1,1,0,99.0,5500.0,1
99,0.0,1.5,1.435349584,11.4829998,0.0858123,0.0,106.0,127.3654281,36.3742641,0.0,9.76445117,-0.314607713,0.515726799,9.787792778,-0.31701175,0.518650067,-0.269513321,1009.189478,-8.43e-05,0.000439,-0.000217,-0.998626253,0.0150387,-0.0271161,0.04222805,-0.052939969,0.032331835,3.057926762,7.0,-0.027651215,0.003242037,-0.00029,-62.84507042,3862.760563,-725.7988066,653.5235093,1738.817591,1,1,1,1,0,99.0,5500.0,1
100,0.0,1.5,1.435349584,11.4829998,0.0858123,0.0,106.0,127.3654281,36.3742641,0.0,9.764570951,-0.311255725,0.514649372,9.787942314,-0.313672316,0.517861816,-0.296992111,1009.192773,1.21e-05,0.000418,9.27e-05,-0.998628494,0.0148692,-0.02706915,0.04226325,-0.052858854,0.031991131,3.0578462,7.0,-0.023730421,0.001578596,-0.000339,-62.84507042,3862.760563,-725.7035199,653.6611615,1738.891724,1,1,1,1,0,99.0,5500.0,1
101,0.0,1.5,1.435349584,11.4829998,0.0858123,0.0,106.0,127.3654281,36.3742641,0.0,9.764211845,-0.314727426,0.515367654,9.787902784,-0.313534291,0.518691325,-0.381016922,1009.202832,-0.000107,0.000161,4.28e-06,-0.998625144,0.01485885,-0.027112,0.042320001,-0.052943579,0.031977049,3.057733476,7.0,-0.020458794,-0.001791702,0.001105738,-62.84507042,3862.760563,-725.8162422,653.5612335,1738.664948,1,1,1,1,0,99.0,5500.0,1
102,0.0,1.5,1.439929605,11.47599983,0.073016934,0.0,106.0,127.3654244,36.3742623,0.0,9.761099195,-0.311495154,0.519198489,9.787828684,-0.31405841,0.519769946,-0.373354721,1009.201855,1.53e-05,0.000374,4.28e-06,-0.998620206,0.01488135,-0.0271692,0.04239005,-0.05305387,0.032030522,3.057596183,7.0,-0.024933767,0.001964687,-0.003205153,-62.84507042,3862.760563,-725.8235222,653.6611687,1738.870555,1,1,1,1,0,99.0,5500.0,1
103,0.0,1.5,1.439929605,11.47599983,0.073016934,0.0,106.0,127.3654244,36.3742623,0.0,9.760021877,-0.314847142,0.518240783,9.78782773,-0.313810332,0.519937867,-0.323414993,1009.195972,0.000199,7.94e-06,0.000249,-0.998615059,0.014865,-0.02717905,0.04251295,-0.053070983,0.032005212,3.057349682,7.0,-0.025651121,0.000759,-0.001816791,-62.84507042,3862.760563,-725.6682237,653.530575,1738.814073,1,1,1,1,0,99.0,5500.0,1
104,0.0,1.5,1.439929605,11.47599983,0.073016934,0.0,106.0,127.3654244,36.3742623,0.0,9.760979509,-0.315206277,0.51728307,9.78792429,-0.312813194,0.518720686,-0.337683487,1009.197632,0.000273,-0.00037,0.000215,-0.998613462,0.0148143,-0.02711615,0.04260465,-0.052946454,0.03190348,3.057161522,7.0,-0.024789953,0.000719,-0.003233317,-62.84507042,3862.760563,-725.602478,653.6474876,1738.807457,1,1,1,1,0,99.0,5500.0,1
105,0.0,1.5,1.439929605,11.47599983,0.073016934,0.0,106.0,127.3654244,36.3742623,0.0,9.763014698,-0.311255728,0.516445073,9.787918186,-0.314085545,0.518067494,-0.360142136,1009.200342,2.08e-05,-1.28e-05,3.48e-05,-0.998612949,0.01488025,-0.0270858,0.04261625,-0.052879938,0.03203329,3.057140636,7.0,-0.023706388,-0.001360162,-0.000784,-62.84507042,3862.760563,-725.6364567,653.798803,1738.722312,1,1,1,1,0,99.0,5500.0,1
106,0.0,1.5,1.439929605,11.47599983,0.073016934,0.0,106.0,127.3654244,36.3742623,0.0,9.767563868,-0.310896584,0.51728307,9.787983036,-0.313890989,0.516961208,-0.387886429,1009.203638,0.000143,0.000293,-2.63e-05,-0.99861415,0.01487245,-0.0270291,0.0426262,-0.05276688,0.032013441,3.057118523,7.0,-0.026045799,-0.000836,-0.002910407,-62.84507042,3862.760563,-725.6788043,653.5623384,1738.796423,1,1,1,1,0,99.0,5500.0,1
107,0.0,1.5,1.437843919,11.51200008,0.056614101,0.0,106.0,127.3654278,36.3742621,0.0,9.766486359,-0.31173458,0.514649373,9.787987471,-0.312293197,0.51783841,-0.367012024,1009.201147,0.000173,0.000232,4.28e-06,-0.998611096,0.01478715,-0.0270714,0.04269855,-0.052856226,0.031850428,3.056970727,7.0,-0.018628073,0.00319232,-0.000795,-62.84507042,3862.760563,-725.6999817,653.5874901,1739.129959,1,1,1,1,0,99.0,5500.0,1
108,0.0,1.5,1.437843919,11.51200008,0.056614101,0.0,106.0,127.3654278,36.3742621,0.0,9.766246986,-0.314727427,0.515128225,9.787949896,-0.315125439,0.516833159,-0.358821869,1009.200171,4.72e-05,0.00072,-8.93e-05,-0.998608354,0.01493245,-0.02702705,0.04274445,-0.052754012,0.032139385,3.056884789,7.0,-0.023139524,0.000877,-0.000628,-62.84507042,3862.760563,-725.7211591,653.5023373,1738.870548,1,1,1,1,0,99.0,5500.0,1
109,0.0,1.5,1.437843919,11.51200008,0.056614101,0.0,106.0,127.3654278,36.3742621,0.0,9.76876092,-0.309460019,0.51812107,9.787929344,-0.313890031,0.517975521,-0.30121994,1009.193262,0.00031,0.000688,-0.000244,-0.998605862,0.0148658,-0.02708325,0.0427889,-0.052870508,0.032013343,3.05679425,7.0,-0.020844507,6.02e-07,-0.004164147,-62.84507042,3862.760563,-725.8376321,653.4105655,1738.810554,1,1,1,1,0,99.0,5500.0,1
110,0.0,1.5,1.437843919,11.51200008,0.056614101,0.0,106.0,127.3654278,36.3742621,0.0,9.765768051,-0.313051434,0.517881644,9.787994909,-0.312205398,0.51775203,-0.329492569,1009.19668,-5.62e-05,-0.000197,-3.05e-05,-0.998606345,0.01477965,-0.02706855,0.04281695,-0.052847385,0.03184147,3.05673331,7.0,-0.022466183,-0.000487,-0.001905522,-62.84507042,3862.760563,-725.7187309,653.5312347,1738.803719,1,1,1,1,0,99.0,5500.0,1
111,0.0,1.5,1.437843919,11.51200008,0.056614101,0.0,106.0,127.3654278,36.3742621,0.0,9.76708498,-0.31365,0.516923934,9.787884283,-0.314337006,0.518553424,-0.351422882,1009.199292,3.54e-05,0.000139,-1.75e-11,-0.998603141,0.01488635,-0.02711425,0.0428251,-0.052929629,0.032058945,3.056723797,7.0,-0.024271059,0.003320706,-0.004263195,-62.84507042,3862.760563,-725.714097,653.6399859,1738.771729,1,1,1,1,0,99.0,5500.0,1
112,0.0,1.5,1.435797095,11.47599983,0.070580721,0.0,106.0,127.3654242,36.3742602,0.0,9.763972425,-0.30946002,0.521353334,9.787948704,-0.312615642,0.518379921,-0.35327301,1009.199463,-0.000137,-0.000385,8.72e-05,-0.998606297,0.0148,-0.02710105,0.0427876,-0.052911605,0.031883325,3.056794083,7.0,-0.021103334,0.001599342,-0.002892557,-62.84507042,3862.760563,-725.6293909,653.6505773,1738.912899,1,1,1,1,0,99.0,5500.0,1
113,0.0,1.5,1.435797095,11.47599983,0.070580721,0.0,106.0,127.3654242,36.3742602,0.0,9.764092112,-0.312692291,0.516445076,9.787960529,-0.312520538,0.5182105,-0.384716034,1009.203271,-0.000288,-5.62e-05,-0.000164,-0.9986119,0.0147988,-0.0270904,0.04266655,-0.05289428,0.031873622,3.057036018,7.0,-0.020516539,-0.001129463,3.03e-05,-62.84507042,3862.760563,-725.6324844,653.5424767,1738.82621,1,1,1,1,0,99.0,5500.0,1
114,0.0,1.5,1.435797095,11.47599983,0.070580721,0.0,106.0,127.3654242,36.3742602,0.0,9.769119978,-0.314488003,0.515846509,9.787885761,-0.313400559,0.519091445,-0.401626205,1009.205298,-1.34e-05,0.000158,0.000111,-0.998614004,0.01484435,-0.02713585,0.0425712,-0.052984435,0.031963405,3.057230628,7.0,-0.021878242,0.000469,-0.001449233,-62.84507042,3862.760563,-725.5199872,653.6435152,1738.694077,1,1,1,1,0,99.0,5500.0,1
115,0.0,1.5,1.435797095,11.47599983,0.070580721,0.0,106.0,127.3654242,36.3742602,0.0,9.762655544,-0.31197401,0.514888802,9.787938213,-0.313882469,0.517810267,-0.361992264,1009.200537,-1.34e-05,0.00031,-4.15e-05,-0.998616251,0.01487225,-0.02707125,0.04255,-0.052853625,0.032012571,3.05727241,7.0,-0.028275537,0.001908459,-0.001844049,-62.84507042,3862.760563,-725.7423455,653.6364602,1738.464657,1,1,1,1,0,99.0,5500.0,1
116,0.0,1.5,1.435797095,11.47599983,0.070580721,0.0,106.0,127.3654242,36.3742602,0.0,9.769120121,-0.314487997,0.518599918,9.787937117,-0.314161877,0.517661133,-0.411932373,1009.206543,0.000191,0.00071,-3.4e-05,-0.99861666,0.0148871,-0.0270641,0.04253945,-0.052838437,0.032041078,3.057294047,7.0,-0.021211338,0.003624436,-0.003610331,-62.84507042,3862.760563,-725.7074852,653.5387383,1738.758705,1,1,1,1,0,99.0,5500.0,1
117,45.0,1.5,1.434936762,11.48700047,0.123387955,57.29955292,106.0,127.3654305,36.3742635,0.0,9.769598866,-0.315325995,0.516564789,9.788032007,-0.313893558,0.516031668,-0.260793304,1009.188428,0.000242,0.000199,-0.000322,-0.998616698,0.0148754,-0.02698125,0.04259605,-0.052671913,0.032013704,3.05717752,7.0,-0.020947027,0.000363,-0.00162172,-62.84507042,3862.760563,-725.6576359,653.5411628,1738.814058,1,1,1,1,0,99.0,5500.0,1
118,45.0,1.5,1.434936762,11.48700047,0.123387955,57.29955292,106.0,127.3654305,36.3742635,0.0,9.766606045,-0.314009142,0.518959069,9.787962914,-0.313244826,0.517729202,-0.367541122,1009.201196,-0.000155,0.000473,-0.000139,-0.998613694,0.01483785,-0.02706685,0.04262635,-0.052845233,0.031947516,3.057117736,7.0,-0.02027936,-0.000525,-0.00176298,-62.84507042,3862.760563,-725.6258689,653.7776346,1738.919951,1,1,1,1,0,99.0,5500.0,1
119,45.0,1.5,1.434936762,11.48700047,0.123387955,57.29955292,106.0,127.3654305,36.3742635,0.0,9.76469059,-0.310298017,0.518121061,9.787950897,-0.313782133,0.517633048,-0.408496094,1009.206128,0.000211,0.000229,-0.0002,-0.998615754,0.01486695,-0.0270623,0.04257085,-0.052835501,0.032002334,3.057230139,7.0,-0.023739004,0.003124973,-0.000589,-62.84507042,3862.760563,-725.6549797,653.7337379,1738.856216,1,1,1,1,0,99.0,5500.0,1
120,45.0,1.5,1.434936762,11.48700047,0.123387955,57.29955292,106.0,127.3654305,36.3742635,0.0,9.768641138,-0.312452862,0.51991677,9.787944651,-0.312935111,0.518262666,-0.483008957,1009.215015,-3.13e-05,0.000138,0.0002,-0.9986177,0.0148238,-0.0270918,0.04251995,-0.05289968,0.031915918,3.057330835,7.0,-0.021578026,0.002517384,-0.002296439,-63.55405405,3967.351351,-725.2376314,653.6046897,1740.8329,1,1,1,1,0,99.0,5500.0,1
121,45.0,1.5,1.434936762,11.48700047,0.123387955,57.29955292,106.0,127.3654305,36.3742635,0.0,9.79473877,-0.313171148,0.520994195,9.787903833,-0.313637447,0.518609741,-0.502561569,1009.217358,3.67e-05,-0.000134,-0.000218,-0.998617205,0.0148592,-0.02711085,0.0425072,-0.05293526,0.031987573,3.057358694,7.0,0.006116676,0.000107,0.00023,-63.55405405,3967.351351,-725.2552742,653.4493947,1740.067024,1,1,1,1,0,99.0,5500.0,1
122,45.0,1.5,1.434936762,11.48700047,0.123387955,57.29955292,106.0,127.3654305,36.3742635,0.0,9.814491701,-0.311495154,0.519916776,9.787975121,-0.312623751,0.517872736,-0.403211594,1009.205518,6.11e-06,-0.000134,5.68e-05,-0.998619694,0.01480955,-0.0270708,0.04249105,-0.052859789,0.031884153,3.057387269,7.0,0.022206736,0.000889,0.001804608,-63.55405405,3967.351351,-725.3024788,653.6137314,1739.958702,1,1,1,1,0,99.0,5500.0,1
123,0.0,1.5,1.421017766,11.47799969,0.058635589,0.0,106.0,127.3654283,36.3742609,0.0,9.80766778,-0.309699444,0.5175225,9.787923288,-0.313609582,0.5182614,-0.396870041,1009.204761,-0.000208,0.000172,-6.54e-05,-0.998620507,0.0148603,-0.02709205,0.0424419,-0.052899667,0.03198473,3.057488871,7.0,0.01830802,-0.002314977,-0.001457188,-63.55405405,3967.351351,-725.7493932,653.498808,1739.08583,1,1,1,1,0,99.0,5500.0,1
124,0.0,1.5,1.421017766,11.47799969,0.058635589,0.0,106.0,127.3654283,36.3742609,0.0,9.795935917,-0.314966853,0.515487367,9.787877989,-0.314222918,0.51874339,-0.374940109,1009.2021,-0.000233,5.77e-05,-0.000157,-0.998621392,0.01489185,-0.02711725,0.0423933,-0.052949015,0.032047305,3.057588577,7.0,0.004945517,-2.57e-05,0.002849376,-63.55405405,3967.351351,-725.6046968,653.7352869,1738.838781,1,1,1,1,0,99.0,5500.0,1
125,0.0,1.5,1.421017766,11.47799969,0.058635589,0.0,106.0,127.3654283,36.3742609,0.0,9.778697157,-0.311734582,0.520156199,9.787816954,-0.314310436,0.519846162,-0.329756546,1009.196729,-2.02e-05,7.39e-05,5.99e-05,-0.998623359,0.0148962,-0.02717245,0.0423105,-0.053061698,0.032056234,3.057756305,7.0,-0.010795593,0.000421,-0.001725098,-63.55405405,3967.351351,-725.617485,653.6324921,1739.182457,1,1,1,1,0,99.0,5500.0,1
126,0.0,1.5,1.421017766,11.47799969,0.058635589,0.0,106.0,127.3654283,36.3742609,0.0,9.771394587,-0.314607714,0.520395631,9.787763023,-0.315764932,0.519969803,-0.335305405,1009.197314,-0.000203,0.000227,9.04e-05,-0.998625556,0.0149723,-0.0271807,0.04222875,-0.053074585,0.032204629,3.057924104,7.0,-0.016368389,-3.99e-05,-0.00172902,-63.55405405,3967.351351,-725.9082211,653.6364602,1738.701136,1,1,1,1,0,99.0,5500.0,1
127,0.0,1.5,1.421017766,11.47799969,0.058635589,0.0,106.0,127.3654283,36.3742609,0.0,9.767922974,-0.313769716,0.520036492,9.787750196,-0.31593193,0.520109615,-0.398455811,1009.204907,-0.000448,-4.83e-05,0.000121,-0.998631647,0.0149847,-0.0271859,0.0420752,-0.0530889,0.032221667,3.05823226,7.0,-0.019587898,0.001204503,0.00172258,-63.55405405,3967.351351,-725.7458712,653.8588149,1738.852891,1,1,1,1,0,99.0,5500.0,1
128,45.0,1.5,1.422774434,11.47500038,0.911742866,260.842865,106.0,127.3653767,36.3742543,0.0,9.767563772,-0.313889429,0.519797063,9.787680626,-0.31645588,0.521100354,-0.416951752,1009.207129,-4.39e-05,-0.000382,-0.000219,-0.998633999,0.01501195,-0.0272361,0.04197795,-0.053190214,0.032275123,3.058429945,7.0,-0.02047596,-0.001264389,-0.00417642,-63.55405405,3967.351351,-725.7974854,653.7787361,1738.848701,1,1,1,1,0,99.0,5500.0,1
129,45.0,1.5,1.422774434,11.47500038,0.911742866,260.842865,106.0,127.3653767,36.3742543,0.0,9.763732862,-0.311974007,0.515966225,9.787729979,-0.315987968,0.520463184,-0.397398376,1009.204761,-0.000189,-0.000349,-0.000169,-0.998635694,0.0149898,-0.0272024,0.04196515,-0.053125033,0.032227383,3.058453333,7.0,-0.019926739,0.001380253,-0.00425753,-63.55405405,3967.351351,-725.6964542,653.8552821,1738.694085,1,1,1,1,0,99.0,5500.0,1
130,45.0,1.5,1.422774434,11.47500038,0.911742866,260.842865,106.0,127.3653767,36.3742543,0.0,9.761338615,-0.311974008,0.516085932,9.787691021,-0.314877449,0.521866295,-0.368069458,1009.201294,-9.77e-05,-0.000349,0.000228,-0.998637593,0.01493215,-0.0272705,0.0418942,-0.053268193,0.032114083,3.058594656,7.0,-0.02707057,3.03e-05,-0.001231241,-63.55405405,3967.351351,-725.5658641,653.802343,1739.156422,1,1,1,1,0,99.0,5500.0,1
131,45.0,1.5,1.422774434,11.47500038,0.911742866,260.842865,106.0,127.3653767,36.3742543,0.0,9.766246986,-0.314607711,0.520275918,9.78774066,-0.314682198,0.52105138,-0.351423264,1009.199243,-3.67e-05,-0.00038,-0.000108,-0.99864285,0.0149265,-0.0272271,0.04179965,-0.053184898,0.032094163,3.058782208,7.0,-0.020416307,-0.001362076,-0.000297,-63.55405405,3967.351351,-725.5499763,653.6699905,1738.709953,1,1,1,1,0,99.0,5500.0,1
132,45.0,1.5,1.422774434,11.47500038,0.911742866,260.842865,106.0,127.3653767,36.3742543,0.0,9.7685215,-0.315565422,0.517761931,9.787798882,-0.315086496,0.519710383,-0.274797058,1009.190137,-6.11e-06,-0.000227,0.000228,-0.998646593,0.01495145,-0.02715875,0.041744401,-0.053047962,0.032135411,3.058891892,7.0,-0.01831975,0.001077351,-0.002307594,-63.55405405,3967.351351,-725.5658677,653.6223324,1738.715253,1,1,1,1,0,99.0,5500.0,1
133,45.0,1.5,1.409832358,11.4829998,0.861706972,78.94017792,106.0,127.3654289,36.3742625,0.0,9.764810419,-0.314128856,0.5140508,9.787784433,-0.314547394,0.520308006,-0.329491806,1009.196704,-0.000137,0.000206,2.81e-05,-0.998649353,0.01492465,-0.027187,0.04167295,-0.053108927,0.03208041,3.059034503,7.0,-0.021776915,0.000538,0.001045337,-63.55405405,3967.351351,-725.7035199,653.8941076,1738.824664,1,1,1,1,0,99.0,5500.0,1
134,45.0,1.5,1.409832358,11.4829998,0.861706972,78.94017792,106.0,127.3654289,36.3742625,0.0,9.766007566,-0.312692288,0.5140508,9.787920666,-0.312650928,0.518884271,-0.381808853,1009.202881,-1.53e-05,-0.00013,-9.41e-05,-0.998655945,0.0148331,-0.02710915,0.0415947,-0.05296314,0.031886925,3.059184003,7.0,-0.021194887,-0.00064,0.001990214,-63.55405405,3967.351351,-725.5724831,653.5574837,1738.649963,1,1,1,1,0,99.0,5500.0,1
135,45.0,1.5,1.409832358,11.4829998,0.861706972,78.94017792,106.0,127.3654289,36.3742625,0.0,9.766486311,-0.30910088,0.522191328,9.787822723,-0.312458228,0.5208415,-0.342968369,1009.198267,-0.00026,-0.000405,8.92e-05,-0.998654851,0.01482,-0.0272081,0.04156375,-0.053163071,0.031867265,3.059248471,7.0,-0.018702602,-0.000114,-0.000685,-63.55405405,3967.351351,-725.6611579,653.6894029,1738.986996,1,1,1,1,0,99.0,5500.0,1
136,45.0,1.5,1.409832358,11.4829998,0.861706972,78.94017792,106.0,127.3654289,36.3742625,0.0,9.76493001,-0.315804848,0.520635062,9.787752771,-0.315544169,0.52030192,-0.405325317,1009.205664,0.000107,5.31e-05,-0.000125,-0.998651394,0.01497735,-0.0271878,0.0416041,-0.053108479,0.032182105,3.05917505,7.0,-0.024139595,0.003091307,-0.000744,-63.55405405,3967.351351,-725.5976275,653.7176334,1738.782313,1,1,1,1,0,99.0,5500.0,1
137,45.0,1.5,1.409832358,11.4829998,0.861706972,78.94017792,106.0,127.3654289,36.3742625,0.0,9.762535763,-0.311974008,0.517163366,9.787760115,-0.315383625,0.520255831,-0.412724686,1009.206616,-0.00031,-0.00024,5.53e-05,-0.998653451,0.01497045,-0.02718445,0.0415605,-0.053103743,0.032165725,3.059261847,7.0,-0.019119024,0.000177,0.001217231,-63.55405405,3967.351351,-725.7524872,653.6324806,1738.653709,1,1,1,1,0,99.0,5500.0,1
138,45.0,1.5,1.408165455,11.47599983,0.386816889,262.9318237,106.0,127.365404,36.3742599,0.0,9.763134384,-0.318199122,0.519557631,9.787732983,-0.314104541,0.521543643,-0.409817123,1009.206323,-3.05e-05,-0.000426,0.000238,-0.998653063,0.0149028,-0.02724725,0.0415509,-0.053235093,0.032035228,3.059279644,7.0,-0.022922707,0.000574,-0.001866296,-63.55405405,3967.351351,-725.7211555,653.6788079,1738.859957,1,1,1,1,0,99.0,5500.0,1
