Time,location_bearingAccuracy,location_speedAccuracy,location_verticalAccuracy,location_horizontalAccuracy,location_speed,location_bearing,location_altitude,location_longitude,location_latitude,pedometer_steps,totalAcceleration_z,totalAcceleration_y,totalAcceleration_x,gravity_z,gravity_y,gravity_x,barometer_relativeAltitude,barometer_pressure,gyroscope_z,gyroscope_y,gyroscope_x,orientation_qz,orientation_qy,orientation_qx,orientation_qw,orientation_roll,orientation_pitch,orientation_yaw,light_lux,accelerometer_z,accelerometer_y,accelerometer_x,wiFi_level,wiFi_frequency,magnetometer_z,magnetometer_y,magnetometer_x,network_type,network_isConnected,network_isInternetReachable,network_isWifiEnabled,network_isConnectionExpensive,network_strength,network_frequency,label
0,0.0,1.5,0.0,1799.999023,0.0,0.0,0.0,127.3441523,36.3607203,0.0,9.392739969,3.32085918,-0.963625186,6.627783926,-1.487144281,-6.998008502,0.084552002,1018.454858,0.390560969,0.066212905,0.031328223,0.884651843,0.0142146,-0.400532204,0.2298069,0.810676992,0.159684295,-2.701214957,331.0,2.728568625,4.870340157,5.998077798,-99.0,-99.0,-9.935293871,-11.71411727,-23.46352891,0,0,0,1,-99.0,-99.0,-99.0,1
1,0.0,1.5,0.0,1799.999023,0.0,0.0,0.0,127.3441523,36.3607203,0.0,9.290912993,2.599478231,-0.111263356,5.101490283,5.305423543,-5.761674762,0.056544495,1018.458325,1.214831999,0.526835836,-0.051016414,-0.371805298,-0.163925399,0.226803851,0.233776299,0.829335618,-0.598354267,0.414287066,272.8,4.217745662,-2.686446059,5.615743738,-99.0,-99.0,-14.50941164,3.412941147,-42.7129401,0,0,0,1,-99.0,-99.0,-99.0,1
2,0.0,1.5,0.0,1799.999023,0.0,0.0,0.0,127.3441523,36.3607203,0.0,9.160794795,3.390293106,-0.42438521,4.848954582,7.914337158,-3.099628925,0.011624908,1018.463672,-0.022231217,-0.047713462,0.083282314,-0.722877848,-0.290790601,0.409279402,0.473266202,0.568338349,-0.941737801,2.277311695,194.8333333,4.440352917,-4.566542363,2.735220313,-99.0,-99.0,-19.57124937,18.9937495,-48.31124902,0,0,0,1,-99.0,-99.0,-99.0,1
3,0.0,1.5,0.0,1799.999023,0.0,0.0,0.0,127.3441523,36.3607203,0.0,9.122327889,3.931399247,0.071969083,4.282505023,8.51154561,-2.242129821,0.085079956,1018.454858,0.114480424,0.030904892,0.093758654,-0.707425556,-0.35373825,0.395021451,0.466156751,0.47777449,-1.053544492,2.255964708,219.0,4.769290352,-4.527951193,2.345801914,-99.0,-99.0,-15.26470549,18.44117602,-54.51176318,0,0,0,1,-99.0,-99.0,-99.0,1
4,0.0,1.5,0.0,1799.999023,0.0,0.0,0.0,127.3441523,36.3607203,0.0,8.850225533,4.172939357,0.008450382,4.83776226,8.315116453,-1.880866438,0.075040054,1018.456006,0.044750155,0.013678494,-0.03956269,-0.70307585,-0.334939499,0.375492799,0.502191155,0.37207676,-1.012461182,2.109830797,209.8333333,3.978197026,-4.14069829,1.903492349,-99.0,-99.0,-15.23999972,21.4658818,-55.16117477,0,0,0,1,-99.0,-99.0,-99.0,1
5,0.0,1.5,0.0,1799.999023,0.0,0.0,0.0,127.3441523,36.3607203,0.0,8.904607296,4.414294466,-0.27429411,5.667156219,7.801880622,-1.726664096,0.089307785,1018.454272,-0.010441519,-0.021629515,-0.032934801,-0.716111702,-0.302516349,0.345057201,0.525366703,0.297100216,-0.920987287,2.024572176,219.0,3.233201146,-3.402759802,1.50770767,-99.0,-99.0,-15.4424997,23.12624955,-56.7599988,0,0,0,1,-99.0,-99.0,-99.0,1
6,0.0,1.5,0.0,1799.999023,0.0,0.0,0.0,127.3441523,36.3607203,0.0,8.950784964,3.747744266,0.571809149,6.04887135,7.621219921,-1.16201061,0.060242844,1018.457764,0.069856717,0.012120788,-0.017602084,-0.706398058,-0.299171099,0.319239102,0.555826101,0.189881208,-0.89022496,1.899248534,282.5,2.920201755,-3.897284591,1.712095222,-99.0,-99.0,-21.47647016,33.50117549,-58.9058811,0,0,0,1,-99.0,-99.0,-99.0,1
7,0.0,1.5,0.0,1799.999023,0.0,0.0,0.0,127.3441523,36.3607203,0.0,8.950362654,3.887034788,0.246751153,6.54047668,7.133595586,-1.506432456,0.075568008,1018.45603,-0.215997675,-0.038031249,-0.022458459,-0.758849451,-0.285180151,0.291624549,0.506110549,0.225243515,-0.814906737,2.062088746,192.0,2.340966058,-3.229610765,1.752085036,-99.0,-99.0,-28.95882281,33.76235221,-55.38705803,0,0,0,1,-99.0,-99.0,-99.0,1
8,0.0,1.5,0.0,1799.999023,0.0,0.0,0.0,127.3441523,36.3607203,0.0,8.965661228,4.15691001,0.762726149,6.718280959,7.027763176,-0.018069113,-0.084553528,1018.475366,0.651950204,0.449775206,-0.018548931,-0.664787701,-0.28435,0.2709245,0.626732199,0.005359455,-0.801824245,1.63296023,300.3333333,1.954381025,-3.050393879,0.770709397,-99.0,-99.0,-40.36124945,33.4649992,-46.0649991,0,0,0,1,-99.0,-99.0,-99.0,1
9,0.0,1.5,0.0,1799.999023,0.0,0.0,0.0,127.3441523,36.3607203,6.5,9.706953357,1.895702291,-2.5799015,7.377632833,6.233736134,-0.126894536,0.085079575,1018.454785,-0.408114793,-0.0019902,-0.318697569,-0.460015351,-0.16618155,0.30112685,0.804219157,0.017289653,-0.69499595,1.04689422,253.0,2.260640144,-4.099479556,-2.392840251,-99.0,-99.0,-50.66470472,33.0988231,-25.10470508,0,0,0,1,-99.0,-99.0,-99.0,1
10,0.0,1.5,0.0,1799.999023,0.0,0.0,0.0,127.3441523,36.3607203,8.0,9.554424146,1.826831679,-2.51652367,7.826560116,4.978894162,-3.036398405,0.050730896,1018.458911,-0.262820495,-0.089099579,0.117521323,-0.739631703,-0.108179051,0.295819301,0.591429651,0.369261511,-0.532894695,1.894405234,185.5,1.72815268,-3.202222526,0.484939462,-99.0,-99.0,-48.00705741,21.87882306,-34.33764648,0,0,0,1,-99.0,-99.0,-99.0,1
11,0.0,1.5,0.0,1799.999023,0.0,0.0,0.0,127.3441523,36.3607203,9.5,9.206884414,2.182531141,-1.094632512,7.997160387,5.536189151,-0.615066805,0.019551849,1018.46272,0.372296099,0.029469363,0.184044532,-0.653539994,-0.179657498,0.240271901,0.690903252,0.076490293,-0.602785754,1.537915456,161.1666667,1.318244529,-3.315379536,-0.431231274,-99.0,-99.0,-41.22749972,24.47624934,-38.29499936,0,0,0,1,-99.0,-99.0,-99.0,1
12,0.0,1.5,0.0,1799.999023,0.0,0.0,0.0,127.3441523,36.3607203,11.0,9.300630906,2.893410693,-0.883064898,8.24464674,5.170931518,0.239881754,-0.005285645,1018.465771,0.459069511,0.151581326,-0.333938653,-0.463527645,-0.1493745,0.2339452,0.8345842,-0.024321914,-0.558688432,1.013805732,66.8,1.178380895,-2.275894141,-1.112834364,-99.0,-99.0,-39.33176377,32.69999975,-28.40470538,0,0,0,1,-99.0,-99.0,-99.0,1
13,0.0,1.5,0.0,1799.999023,0.0,0.0,0.0,127.3441523,36.3607203,12.0,9.747796844,2.150481319,-0.787998096,8.221620774,5.289854312,0.265413735,-0.021138763,1018.467603,-0.34235514,-0.153362604,0.12482115,-0.525809254,-0.167988899,0.227001302,0.7993209,-0.031090685,-0.571205291,1.156381392,52.83333333,1.768371105,-3.194145584,-1.117536137,-99.0,-99.0,-42.55764636,35.59764683,-33.40941093,0,0,0,1,-99.0,-99.0,-99.0,1
14,0.0,1.5,0.0,1799.999023,0.0,0.0,0.0,127.3441523,36.3607203,13.0,9.089864433,2.813871481,-0.806272042,8.119052148,5.419304109,-0.801597752,-0.004756546,1018.465649,-0.261782023,0.006714628,0.139634629,-0.635037643,-0.16112595,0.244439101,0.713091096,0.099081426,-0.585716438,1.485978657,157.0,1.00229702,-2.6514027,-0.08595991,-99.0,-99.0,-50.33249927,25.58624947,-42.02999902,0,0,0,1,-99.0,-99.0,-99.0,1
15,0.0,1.5,0.0,1799.999023,0.0,0.0,0.0,127.3441523,36.3607203,14.5,9.392740053,2.790034347,-0.96418855,8.231294131,5.271727991,-0.515849304,0.008455276,1018.464038,-0.142785479,-0.160692989,-0.107490903,-0.661294299,-0.172854499,0.2221574,0.693320197,0.06360509,-0.568216838,1.542561656,440.2,1.140615797,-2.495566332,-0.514646575,-99.0,-99.0,-51.50117538,20.65764652,-43.62705769,0,0,0,1,-99.0,-99.0,-99.0,1
16,0.0,1.5,0.0,1799.999023,0.0,0.0,0.0,127.3441523,36.3607203,16.0,9.271899616,2.727501554,-0.951372142,8.41477685,4.9740623,0.218393353,-0.001057053,1018.465283,0.905428749,0.300235383,-0.018060225,-0.564204846,-0.166975999,0.206042251,0.766245493,-0.025009123,-0.532597034,1.263399717,399.3333333,0.693762803,-2.211787438,-1.15036481,-99.0,-99.0,-46.29176353,25.39411713,-35.72823468,0,0,0,1,-99.0,-99.0,-99.0,1
17,0.0,1.5,0.0,1799.999023,0.0,0.0,0.0,127.3441523,36.3607203,17.0,7.138530357,-0.635380723,-2.481067262,7.704222587,3.495839199,-1.224595083,-0.000529,1018.46521,-1.32569546,1.724986945,-0.249181114,-0.349670151,0.0092854,0.2182995,0.8713422,0.182671065,-0.371008708,0.746505985,262.5,-1.260630476,-4.952037132,-1.540792266,-99.0,-99.0,-43.82999897,32.47874904,-27.77624947,0,0,0,1,-99.0,-99.0,-99.0,1
18,0.0,1.5,0.0,1799.999023,0.0,0.0,0.0,127.3441523,36.3607203,18.0,-0.753633188,-8.951911814,-7.823785866,-0.849445366,-5.898646218,-6.63404305,-0.088253021,1018.475879,0.585671359,0.295531728,0.22540012,-0.56433215,0.686566752,0.218774002,0.338631301,1.642138124,0.713924932,1.315796214,41.25,0.041976199,-2.745883012,-0.897986376,-99.0,-99.0,-43.60235214,42.74117548,-1.238823568,0,0,0,1,-99.0,-99.0,-99.0,1
19,0.0,1.5,0.0,1799.999023,0.0,0.0,0.0,127.3441523,36.3607203,19.5,-1.58120726,-8.360948478,-6.797064557,-1.21978726,-6.452752793,-7.049137688,-0.282194901,1018.499243,-0.638441532,0.127818672,0.395770428,-0.584149,0.697462296,0.264260296,0.297716253,1.74175002,0.731465897,1.347905815,24.0,-0.294950691,-1.908174586,0.357019854,-99.0,-99.0,-44.77058725,40.75411696,7.545882246,0,0,0,1,-99.0,-99.0,-99.0,1
20,45.0,1.5,0.0,699.9990234,0.110901229,141.7080536,0.0,127.3450343,36.3598207,19.5,-0.688802909,-7.587307185,-6.539213419,-3.309557289,-6.257301402,-6.340725064,-0.268455887,1018.497461,0.658486463,0.923684442,0.231966908,0.433339646,-0.370755748,-0.549053948,0.05845245,2.033313787,0.714035073,2.242399704,27.5,2.659870861,-1.398392391,-0.300634074,-99.0,-99.0,-12.44999979,20.2987493,16.79999977,0,0,0,1,-99.0,-99.0,-99.0,1
21,45.0,1.5,0.0,699.9990234,0.110901229,141.7080536,0.0,127.3450343,36.3598207,22.0,-1.756552665,-4.006607613,-8.920786156,-3.618645644,-3.060603142,-8.518526959,-0.165407181,1018.485034,-0.05753923,-0.450548553,-0.89501837,-0.206635557,0.220974204,0.240231556,0.127427251,1.973927087,0.318923761,2.226013958,25.5,1.972581708,-0.852240422,-0.375844812,-99.0,-99.0,-13.05882335,7.987058668,15.08823501,0,0,0,1,-99.0,-99.0,-99.0,1
22,45.0,1.5,0.0,699.9990234,0.110901229,141.7080536,0.0,127.3450343,36.3598207,23.5,-1.457409156,-2.569901908,-9.646955715,-1.977859372,-1.262303689,-9.498927927,-0.032765198,1018.469067,0.087541266,-0.199910539,-0.12102157,-0.489422153,0.562860948,0.532430297,0.397851354,1.776267648,0.12914672,1.618605494,25.5,0.523696551,-1.333808488,-0.117317724,-99.0,-99.0,-29.57646976,15.73764678,13.44352907,0,0,0,1,-99.0,-99.0,-99.0,1
23,45.0,1.5,0.0,699.9990234,0.110901229,141.7080536,0.0,127.3450343,36.3598207,23.5,0.000299,-2.23759944,-9.690677643,-0.522097091,-1.195884964,-9.712079573,-0.028009033,1018.468481,-0.093610824,-0.042612739,0.170513879,-0.515655702,0.542601153,0.481344399,0.454148299,1.624449885,0.122316203,1.568004298,25.5,0.488218099,-1.075802988,0.013470936,-99.0,-99.0,-34.45499921,16.29749954,8.883749843,0,0,0,1,-99.0,-99.0,-99.0,1
24,45.0,1.5,0.0,699.9990234,0.110901229,141.7080536,0.0,127.3450343,36.3598207,23.5,1.132914511,-2.440611061,-9.88074959,0.713538202,-1.244053407,-9.635288715,-0.042276764,1018.470215,0.235187399,-0.233569217,0.205333186,-0.608400401,0.446792798,0.511440051,0.406139898,1.497384554,0.127420506,1.841512048,31.0,0.483599199,-1.231267619,-0.280720139,-99.0,-99.0,-34.5247051,9.303529277,4.718823483,0,0,0,1,-99.0,-99.0,-99.0,1
25,45.0,1.5,0.0,699.9990234,0.167764917,141.7080536,0.0,127.345219,36.3596323,23.5,6.299900356,3.196638577,-5.021498477,5.99083091,3.935415837,-4.288442554,-0.039634323,1018.469897,1.094491548,-0.878368004,-0.403607838,-0.542639603,0.0583166,0.363565902,0.700451246,0.574606907,-0.420943791,1.415641627,223.5,0.370038986,-1.179126662,-0.960166895,-99.0,-99.0,-35.47764621,6.885882279,-28.49647027,0,0,0,1,-99.0,-99.0,-99.0,1
26,45.0,1.5,0.0,699.9990234,0.167764917,141.7080536,0.0,127.345219,36.3596323,23.5,9.641595006,1.756499859,-1.982309883,9.417195415,2.184240514,-1.509048651,0.127885056,1018.449683,0.628584608,0.331481127,-0.282564891,-0.207192499,0.051735,0.1259772,0.965509447,0.158894086,-0.22481717,0.440997053,441.5,0.283927345,-0.731993121,-0.278756338,-99.0,-99.0,-37.24874926,38.201249,-30.84749925,0,0,0,1,-99.0,-99.0,-99.0,1
27,45.0,1.5,0.0,699.9990234,0.167764917,141.7080536,0.0,127.345219,36.3596323,23.5,8.94895419,2.411738915,-2.739332073,9.323711729,2.319507843,-1.920108372,0.094593048,1018.45376,0.168908516,0.120457741,-0.005201518,-0.0296372,0.0955193,0.1225361,0.986777648,0.203145688,-0.238898689,0.08458835,424.5,-0.249888992,0.067105281,-0.857489836,-99.0,-99.0,-37.41529285,44.88705781,-20.9047055,0,0,0,1,-99.0,-99.0,-99.0,1
28,45.0,1.5,0.0,699.9990234,0.167764917,141.7080536,0.0,127.345219,36.3596323,23.5,9.115989966,2.646237016,-2.375965657,8.827424335,3.394365335,-2.508883506,0.110446167,1018.451831,-1.129943705,-0.459070121,0.45960585,-0.231496151,0.080354001,0.202464402,0.923271951,0.276833888,-0.353981642,0.543078778,326.6666667,0.361922145,-0.77000072,0.177937257,-99.0,-99.0,-39.45882214,31.68352856,-27.68117579,0,0,0,1,-99.0,-99.0,-99.0,1
29,45.0,1.5,0.0,699.9990234,0.167764917,141.7080536,0.0,127.345219,36.3596323,23.5,9.399623543,2.546610512,-1.081613646,9.111839914,3.3892205,-1.010887482,-0.019553757,1018.467456,-0.85542087,-0.548195359,0.167245742,-0.755045953,-0.10034845,0.145410648,0.607218555,0.109902119,-0.353115825,1.805744225,215.8333333,0.856842852,-1.06593594,-0.473203744,-99.0,-99.0,-27.56249976,1.676249972,-41.67374945,0,0,0,1,-99.0,-99.0,-99.0,1
30,45.0,1.5,0.0,699.9990234,0.216766551,141.7080536,0.0,127.3453022,36.3595474,23.5,8.828536146,3.499443869,-1.252769076,8.833394694,3.659767604,-1.034602958,-0.015855026,1018.467017,-0.328366346,-0.104126864,-0.13870612,-0.901432997,-0.15659075,0.1293327,0.360941799,0.115593014,-0.390142255,2.398221815,309.2,-0.063764668,-0.172147244,-0.670000991,-99.0,-99.0,-20.90823471,-13.77882324,-31.63411701,0,0,0,1,-99.0,-99.0,-99.0,1
31,45.0,1.5,0.0,699.9990234,0.216766551,141.7080536,0.0,127.3453022,36.3595474,23.5,9.689630088,1.284458017,-0.791237405,9.496150303,1.904104334,-1.324725166,-0.030122375,1018.468774,0.271045187,0.04309165,-0.055200839,-0.915623796,-0.06444895,0.099803901,0.37985985,0.138672063,-0.195620254,2.368999708,425.6666667,0.159121919,-0.579711226,0.558796653,-99.0,-99.0,-25.51058747,-9.391764473,-29.31529337,0,0,0,1,-99.0,-99.0,-99.0,1
32,45.0,1.5,0.0,699.9990234,0.216766551,141.7080536,0.0,127.3453022,36.3595474,23.5,9.530859828,1.289616268,-0.953370323,9.634951973,1.629967785,-0.793160307,-0.080325699,1018.474707,-0.221281658,-0.018880623,-0.014456126,-0.92779555,-0.0630759,0.068173701,0.358177599,0.082150479,-0.167010703,2.411604977,430.3333333,-0.020861149,-0.383987176,-0.121213247,-99.0,-99.0,-25.75124931,-8.962499946,-29.83499944,0,0,0,1,-99.0,-99.0,-99.0,1
33,45.0,1.5,0.0,699.9990234,0.216766551,141.7080536,0.0,127.3453022,36.3595474,23.5,9.589352467,1.841760691,-0.313931681,9.565241194,2.068293625,-0.503967468,-0.068171692,1018.473291,0.097192935,-0.026669153,0.013154979,-0.919225651,-0.0883512,0.06446985,0.376895249,0.052642928,-0.212636704,2.368943608,250.6666667,-0.033633089,-0.196808726,0.191873744,-99.0,-99.0,-25.01294058,-9.409411543,-31.17176381,0,0,0,1,-99.0,-99.0,-99.0,0
34,45.0,1.5,0.0,699.9990234,0.216766551,141.7080536,0.0,127.3453022,36.3595474,23.5,9.70808018,1.316710318,-0.605751533,9.637136984,1.670662034,-0.694181269,-0.062358475,1018.472681,-0.026873796,0.037502239,0.020729712,-0.928658947,-0.06701825,0.0640181,0.35904185,0.07191339,-0.171196473,2.409941816,230.5,0.054528284,-0.341360658,0.095851994,-99.0,-99.0,-26.47411728,-9.268234982,-30.59999926,0,0,0,1,-99.0,-99.0,-99.0,0
35,45.0,1.5,0.0,699.9990234,0.262096614,141.7080536,0.0,127.3453523,36.3594963,23.5,9.680801213,1.597879149,-0.906981217,9.613020706,1.746893722,-0.839855459,-0.066057587,1018.473022,-0.060074321,-0.006571688,0.01602605,-0.932192153,-0.06879425,0.0715919,0.347842103,0.087144064,-0.179090494,2.435132372,222.25,0.064997244,-0.15661639,-0.065539549,-99.0,-99.0,-26.51999915,-10.2899999,-28.76249933,0,0,0,1,-99.0,-99.0,-99.0,0
36,45.0,1.5,0.0,699.9990234,0.262096614,141.7080536,0.0,127.3453523,36.3594963,23.5,9.605407939,1.636416407,-1.05263588,9.58721776,1.786150146,-1.025578463,-0.017439651,1018.467236,-0.087838146,-0.013046861,-0.006087273,-0.943356103,-0.07028515,0.0788849,0.314176153,0.106559558,-0.183165736,2.50838387,220.5,-0.034659863,-0.11746031,-0.011262241,-99.0,-99.0,-25.64117577,-10.7223527,-25.30235246,0,0,0,1,-99.0,-99.0,-99.0,0
37,45.0,1.5,0.0,699.9990234,0.262096614,141.7080536,0.0,127.3453523,36.3594963,23.5,9.676672879,1.840774817,-0.68166413,9.428933334,2.383062911,-1.172634086,-0.05073204,1018.471289,0.152506778,0.050269327,0.054266217,-0.947110096,-0.09987545,0.093533849,0.286679897,0.123869818,-0.245686115,2.569302797,260.0,0.223585367,-0.552400404,0.493378326,-99.0,-99.0,-23.05411709,-11.87294102,-25.95882281,0,0,0,1,-99.0,-99.0,-99.0,0
38,45.0,1.5,0.0,699.9990234,0.262096614,141.7080536,0.0,127.3453523,36.3594963,23.5,9.326299101,2.071646275,-1.855562979,9.413947248,2.120424461,-1.559803036,-0.06024437,1018.472437,0.050339569,0.060531869,0.127172984,-0.916919249,-0.070677549,0.114878801,0.372412451,0.163846586,-0.218414984,2.387010443,327.8333333,-0.104049039,-0.0330957,-0.384108672,-99.0,-99.0,-26.05874944,-10.29749978,-28.19624937,0,0,0,1,-99.0,-99.0,-99.0,0
39,45.0,1.5,0.0,699.9990234,0.262096614,141.7080536,0.0,127.3453523,36.3594963,23.5,9.019796596,2.498777824,-1.126435879,9.313780737,2.676590359,-1.300108525,0.01690979,1018.463184,-0.067679592,0.003935195,0.046538768,-0.908232108,-0.10105475,0.115692801,0.387007149,0.138855235,-0.277180185,2.355824113,198.4,-0.137842155,-0.144046175,0.165701123,-99.0,-99.0,-24.12705837,-10.8847056,-30.50823447,0,0,0,1,-99.0,-99.0,-99.0,0
40,45.0,1.5,0.0,699.9990234,0.303264737,141.7080536,0.0,127.3453878,36.3594601,23.5,7.886741217,1.689231284,-3.680141154,8.47729888,2.517568272,-3.487621748,-0.024308777,1018.467993,-0.206040576,1.045826959,-0.286168988,-0.884394199,-0.04701685,0.225979751,0.3852382,0.392045643,-0.260244978,2.365843081,285.3333333,-0.445464659,-0.693370306,0.013768476,-77.62962963,3449.666667,-24.26117594,-10.8070585,-24.76235238,0,0,0,1,-99.0,-99.0,-99.0,0
41,45.0,1.5,0.0,699.9990234,0.303264737,141.7080536,0.0,127.3453878,36.3594601,23.5,0.502348779,-4.963630974,-9.170371771,-0.464264637,-4.957062048,-8.103927994,-0.143212128,1018.482422,-0.76550151,0.844363601,0.314036659,0.042559743,-0.04000035,-0.090140951,0.1261575,1.640540993,0.54205059,2.603652704,56.8,0.882424745,-0.033444673,-0.926438522,-77.62962963,3449.666667,-8.726249818,10.12124979,10.99124968,0,0,0,1,-99.0,-99.0,-99.0,0
42,45.0,1.5,0.0,699.9990234,0.303264737,141.7080536,0.0,127.3453878,36.3594601,23.5,-1.458395032,-7.343663384,-6.608480145,-1.530970973,-7.354530406,-6.297573948,-0.355651093,1018.507959,-0.081790579,0.032645861,-0.042769733,0.60816665,-0.367612147,-0.665406749,0.2276726,1.808978766,0.848185581,2.814922631,24.0,0.07321676,0.031640935,-0.298293948,-77.62962963,3449.666667,3.183529349,22.08705857,13.91294075,0,0,0,1,-99.0,-99.0,-99.0,0
43,45.0,1.5,0.0,699.9990234,0.303264737,141.7080536,0.0,127.3453878,36.3594601,23.5,-0.793772521,-7.295355376,-6.713969118,-1.195736387,-7.223447251,-6.509438777,-0.342439651,1018.506348,0.130393463,-0.000463,0.184288887,0.61343475,-0.326932999,-0.673336649,0.249486151,1.753000861,0.828177521,2.940543389,22.0,0.455785745,-0.087590623,-0.216677713,-77.62962963,3449.666667,2.329411696,18.56470518,12.22235276,0,0,0,1,-99.0,-99.0,-99.0,0
44,45.0,1.5,0.0,699.9990234,0.303264737,141.7080536,0.0,127.3453878,36.3594601,23.5,-0.222966853,-6.513474971,-7.606611073,-0.682163268,-6.246834254,-7.514134789,-0.439146042,1018.518115,-0.024277622,-0.10458502,-0.197654617,0.651822096,-0.283275598,-0.673151696,0.198657949,1.661410004,0.69142051,2.981124079,20.33333333,0.449439758,-0.217947149,-0.047104788,-77.62962963,3449.666667,-0.584999979,11.18624967,10.2674998,0,0,0,1,-99.0,-99.0,-99.0,0
45,45.0,1.5,0.0,699.9990234,0.338644534,141.7080536,0.0,127.3454156,36.3594317,23.5,-0.962216808,-6.438486604,-7.523093027,-0.864986092,-6.418334222,-7.355808401,-0.383131027,1018.511304,0.111700986,0.24507425,0.254263497,0.6408692,-0.288654301,-0.676162452,0.2083295,1.687840664,0.713994005,1.090606523,22.8,-0.061478566,-0.057700253,-0.110857248,-77.62962963,3449.666667,1.002352942,13.94470557,11.1564703,0,0,0,1,-99.0,-99.0,-99.0,0
46,45.0,1.5,0.0,699.9990234,0.338644534,141.7080536,0.0,127.3454156,36.3594317,23.5,-0.587301524,-6.646366035,-7.365634329,-0.774914034,-6.668442607,-7.144736385,-0.440203476,1018.518164,-0.068840236,-0.050828875,0.042537601,0.615352455,-0.22820555,-0.698075247,0.2858868,1.678589052,0.747874153,-3.096000004,19.5,0.193464392,0.030315709,-0.198624158,-77.62962963,3449.666667,7.189411612,14.72117609,11.68235268,0,0,0,1,-99.0,-99.0,-99.0,0
47,45.0,1.5,0.0,699.9990234,0.338644534,141.7080536,0.0,127.3454156,36.3594317,23.5,-0.126597283,-6.728660405,-7.426441967,-0.435078141,-6.716721559,-7.126595402,-0.424878311,1018.516333,-0.0293478,-0.020835391,-0.073954403,0.632313195,-0.241971752,-0.6807015,0.278457799,1.631474799,0.754574907,-1.22487427,23.0,0.336434012,0.0009,-0.282248592,-77.62962963,3449.666667,4.837499902,15.00749969,11.63249981,0,0,0,1,-99.0,-99.0,-99.0,0
48,45.0,1.5,0.0,699.9990234,0.338644534,141.7080536,0.0,127.3454156,36.3594317,23.5,-0.506318702,-6.988606425,-7.140995054,-0.635081758,-6.938834023,-6.89610455,-0.413251877,1018.514868,-0.016763976,0.089731216,0.096049395,0.608730647,-0.226523149,-0.693362498,0.311309101,1.662456846,0.786336243,-2.735386288,23.33333333,0.127375783,-0.048258424,-0.211539626,-77.62962963,3449.666667,8.06470568,17.03999968,10.87058808,0,0,0,1,-99.0,-99.0,-99.0,0
49,45.0,1.5,0.0,699.9990234,0.338644534,141.7080536,0.0,127.3454156,36.3594317,23.5,-0.690396199,-7.016070226,-7.000436979,-0.412854009,-7.164237523,-6.681077433,-0.348251724,1018.507104,-0.01147999,0.018351613,0.07305032,0.610747346,-0.23450615,-0.682612696,0.325325252,1.632435238,0.819280991,-3.028108764,21.0,-0.287830524,0.141230917,-0.312718916,-77.62962963,3449.666667,6.921176293,18.49411729,9.201176195,0,0,0,1,-99.0,-99.0,-99.0,0
50,45.0,1.5,0.0,699.9990234,0.366475552,141.7080536,0.0,127.3454386,36.3594083,23.5,0.399095686,-6.13921988,-7.896767318,0.045087666,-6.035383701,-7.672309899,-0.324472427,1018.504297,0.218907838,-0.043467952,0.032916475,0.644212699,-0.167872601,-0.684700948,0.2922254,1.567358607,0.666324148,-2.955220735,19.33333333,0.29693449,-0.137415886,-0.090767074,-77.62962963,3449.666667,4.544999897,14.18249971,7.694999844,0,0,0,1,-99.0,-99.0,-99.0,0
51,45.0,1.5,0.0,699.9990234,0.366475552,141.7080536,0.0,127.3454386,36.3594083,23.5,0.165627482,-5.036145743,-8.558968993,0.150213863,-5.054747248,-8.386865139,-0.363577652,1018.50896,0.133753222,0.068931257,0.045347582,0.657066798,-0.10160455,-0.693631601,0.2753856,1.552642822,0.542285834,-2.880609941,19.0,0.052581213,0.030840421,-0.190744066,-77.62962963,3449.666667,5.304705732,12.37764678,6.903529251,0,0,0,1,-99.0,-99.0,-99.0,0
52,45.0,1.5,0.0,699.9990234,0.366475552,141.7080536,0.0,127.3454386,36.3594083,23.5,0.261257631,-4.413070987,-8.935151886,0.248409098,-4.477734995,-8.716522408,-0.350366211,1018.507446,0.044627983,-0.072148072,-0.040356812,0.664833248,-0.06626255,-0.694912893,0.265109699,1.542291158,0.474322201,-2.844192195,17.5,0.01017258,0.065325916,-0.270268297,-77.62962963,3449.666667,7.538823408,8.544705699,2.287058781,0,0,0,1,-99.0,-99.0,-99.0,0
53,45.0,1.5,0.0,699.9990234,0.366475552,141.7080536,0.0,127.3454386,36.3594083,23.5,0.213090459,-4.693526879,-8.802700907,0.176268721,-4.679786503,-8.545139575,-0.364105988,1018.509131,-0.2600716,0.187775093,0.250781564,0.637047106,-0.03241945,-0.699552503,0.309708799,1.552642965,0.500642942,-2.728616953,17.5,0.044363718,-0.027836621,-0.306494308,-77.62962963,3449.666667,15.28124976,7.327499822,2.219999947,0,0,0,1,-99.0,-99.0,-99.0,0
54,45.0,1.5,0.0,699.9990234,0.366475552,141.7080536,0.0,127.3454386,36.3594083,23.5,-0.164219084,-6.002306125,-7.969273287,-0.09934498,-6.023013186,-7.737996626,-0.404269028,1018.513818,-0.009952827,-0.000402,0.021401664,0.580553499,-0.04348055,-0.709339401,0.397342747,1.583645523,0.661363858,-2.610518253,17.5,-0.050057768,0.033255887,-0.22224884,-77.62962963,3449.666667,19.74705842,15.62117605,4.799999924,0,0,0,1,-99.0,-99.0,-99.0,0
55,45.0,1.5,0.0,699.9990234,0.38538003,141.7080536,0.0,127.3454582,36.3593883,23.5,-0.080137786,-6.056811052,-7.915895041,-0.033221984,-5.841255021,-7.876517534,-0.379432297,1018.510938,0.007059769,-0.007304727,0.003075707,0.584750652,-0.0308091,-0.707621154,0.395425197,1.575000185,0.638092881,-2.593007481,17.0,-0.045310229,-0.20895772,-0.046736336,-77.62962963,3449.666667,16.88117616,16.74705848,5.721176316,0,0,0,1,-99.0,-99.0,-99.0,0
56,45.0,1.5,0.0,699.9990234,0.38538003,141.7080536,0.0,127.3454582,36.3593883,23.5,-0.027085233,-6.053923875,-7.928940386,0.01718204,-6.009161901,-7.749628973,-0.361991882,1018.508765,-0.001339627,0.069633752,0.088841188,0.575181407,-0.0267147,-0.705862951,0.41215325,1.568567866,0.6595617,-2.556293571,17.5,-0.057884709,-0.066430163,-0.174462914,-77.62962963,3449.666667,16.15874958,17.31749964,6.749999881,0,0,0,1,-99.0,-99.0,-99.0,0
57,45.0,1.5,0.0,699.9990234,0.38538003,141.7080536,0.0,127.3454582,36.3593883,23.5,-0.047462977,-6.176947341,-7.830827881,-0.038040586,-6.016993499,-7.743315411,-0.437561035,1018.517871,-0.025774237,-0.02587503,-0.026978863,0.5621236,-0.00802715,-0.708382052,0.426679854,1.575717378,0.660584709,-2.506679606,17.66666667,-0.009605482,-0.147785282,-0.085723805,-77.62962963,3449.666667,16.64823493,17.99999955,4.704705729,0,0,0,1,-99.0,-99.0,-99.0,0
58,45.0,1.5,0.0,699.9990234,0.38538003,141.7080536,0.0,127.3454582,36.3593883,23.5,-0.039575954,-6.193425543,-7.788998436,-0.011180836,-6.113533545,-7.666693544,-0.430691528,1018.517017,0.002295021,-0.008434828,-0.003888158,0.563327393,-0.01759125,-0.707251951,0.426711352,1.572201467,0.673149937,-2.519036889,17.5,-0.033352673,-0.074349999,-0.127030063,-77.62962963,3449.666667,15.98823508,17.99647017,4.72941163,0,0,0,1,-99.0,-99.0,-99.0,0
59,45.0,1.5,0.0,699.9990234,0.38538003,141.7080536,0.0,127.3454582,36.3593883,23.5,0.016460637,-6.168849021,-7.798751682,-0.020708875,-6.122909236,-7.659463334,-0.430692291,1018.517065,0.008892365,-0.012833057,-0.02047315,0.565777647,-0.02307265,-0.707467952,0.422832195,1.573475379,0.67434482,-2.534054148,17.5,0.050996451,-0.050488973,-0.124324107,-77.62962963,3449.666667,15.41624963,17.44874942,3.393749923,0,0,0,1,-99.0,-99.0,-99.0,0
60,45.0,1.5,0.0,699.9990234,0.394669086,141.7080536,0.0,127.3454748,36.3593713,23.5,0.179429776,-6.684392789,-7.43253318,-0.104393799,-6.425911736,-7.398114491,-0.375732803,1018.5104,-0.067557419,0.066671053,0.007137963,0.554092252,-0.036921,-0.709817848,0.43269285,1.585277045,0.714940539,-2.540228772,19.0,0.283126408,-0.299606228,-0.048678756,-77.62962963,3449.666667,15.7341174,18.9635288,3.931764645,0,0,0,1,-99.0,-99.0,-99.0,0
61,45.0,1.5,0.0,699.9990234,0.394669086,141.7080536,0.0,127.3454748,36.3593713,23.5,-1.122914893,-7.121981705,-6.714250761,-0.464937504,-7.119655108,-6.709513521,-0.32922821,1018.504712,-0.138539962,-0.023767546,0.017033977,0.519389647,-0.0697173,-0.719998899,0.454195198,1.640417391,0.813752982,-2.570376348,21.33333333,-0.622063261,-0.004030776,-0.012772155,-77.62962963,3449.666667,17.06117608,22.61647011,5.251764578,0,0,0,1,-99.0,-99.0,-99.0,0
62,45.0,1.5,0.0,699.9990234,0.394669086,141.7080536,0.0,127.3454748,36.3593713,23.5,0.113578405,-7.587756187,-6.677782089,-0.298790518,-7.42877717,-6.39122715,-0.353008652,1018.507666,-0.006898501,0.034081395,-0.033759467,0.511112051,-0.0816738,-0.713101557,0.4726741,1.617382091,0.859594345,-2.544557118,19.0,0.368583632,-0.163587952,-0.300052667,-77.62962963,3449.666667,15.04124963,22.50749934,4.837499797,0,0,0,1,-99.0,-99.0,-99.0,0
63,45.0,1.5,0.0,699.9990234,0.394669086,141.7080536,0.0,127.3454748,36.3593713,23.5,-0.992074819,-7.700832872,-6.117372148,-0.865204465,-7.541768575,-6.203238297,-0.351423645,1018.507568,0.017261217,0.167738707,0.116788275,0.461646551,-0.0482074,-0.7354967,0.491966802,1.709285116,0.877652246,-2.496671987,21.33333333,-0.129736429,-0.185513926,0.092450452,-77.62962963,3449.666667,17.85882293,23.62941125,2.428235224,0,0,0,1,-99.0,-99.0,-99.0,0
64,45.0,1.5,0.0,699.9990234,0.394669086,141.7080536,0.0,127.3454748,36.3593713,23.5,-0.595611071,-7.682805398,-6.21272059,-0.658898118,-7.625531602,-6.129912519,-0.35565033,1018.508032,-0.033257336,-0.069368635,-0.037485746,0.454428948,-0.0371685,-0.729420948,0.509767404,1.677801687,0.890877965,-2.433090174,22.0,0.074455635,-0.065717149,-0.097476554,-77.62962963,3449.666667,18.53294081,24.91411725,0.58588234,0,0,0,1,-99.0,-99.0,-99.0,0
65,45.0,1.5,0.0,699.9990234,0.394586354,141.7080536,0.0,127.3454886,36.3593573,23.5,-0.766766507,-7.811770469,-6.145953774,-0.546092807,-7.756028676,-5.973921728,-0.327642441,1018.504688,-0.05445436,-0.002509435,0.019660698,0.465519051,-0.063895801,-0.723637009,0.505365048,1.661896491,0.912448022,-2.475369537,22.0,-0.23934904,-0.04858892,-0.203666425,-77.62962963,3449.666667,17.62874973,24.84374952,1.421249963,0,0,0,1,-99.0,-99.0,-99.0,0
66,45.0,1.5,0.0,699.9990234,0.394586354,141.7080536,0.0,127.3454886,36.3593573,23.5,-0.713212207,-7.739282103,-6.29018245,-0.560070981,-7.566624308,-6.193633842,-0.406910706,1018.514233,0.094291327,0.083011698,0.085053818,0.447155249,-0.0173397,-0.726525301,0.520681903,1.659392935,0.882196254,-2.372351027,19.5,-0.129599879,-0.178136349,-0.076493025,-77.62962963,3449.666667,18.5717641,24.70941106,2.0258823,0,0,0,1,-99.0,-99.0,-99.0,0
67,45.0,1.5,0.0,699.9990234,0.394586354,141.7080536,0.0,127.3454886,36.3593573,23.5,0.028872138,-7.565345007,-6.42665605,-0.258785122,-7.411777616,-6.411346507,-0.468212128,1018.521704,0.004982828,0.034050851,0.053472093,0.434110448,0.0294507,-0.715623295,0.546053502,1.611168635,0.856866714,-2.231895971,19.0,0.277460472,-0.154489923,-0.020513606,-77.62962963,3449.666667,18.68823478,25.41882313,0.508235278,0,0,0,1,-99.0,-99.0,-99.0,0
68,45.0,1.5,0.0,699.9990234,0.394586354,141.7080536,0.0,127.3454886,36.3593573,23.5,-0.202016936,-7.579825133,-6.412765771,-0.120083631,-7.577244711,-6.22368505,-0.386301041,1018.511719,-0.016275283,0.044985338,0.015781704,0.427285202,0.0241795,-0.71097675,0.5578729,1.590077078,0.883056289,-2.205307579,19.5,-0.120900134,-0.049358511,-0.195126271,-77.62962963,3449.666667,18.92999935,26.71874952,0.071249996,0,0,0,1,-99.0,-99.0,-99.0,0
69,45.0,1.5,0.0,699.9990234,0.394586354,141.7080536,0.0,127.3454886,36.3593573,23.5,-0.270693895,-7.675763355,-6.206805341,-0.077567136,-7.565722561,-6.236456609,-0.357763672,1018.508374,-0.018718743,-0.03488529,-0.019679025,0.42864525,0.02492435,-0.709345502,0.558826098,1.583045667,0.88134447,-2.199396324,20.0,-0.207950133,-0.128638721,0.001645279,-77.62962963,3449.666667,18.84705835,26.79176409,-1.168235263,0,0,0,1,-99.0,-99.0,-99.0,0
70,45.0,1.5,0.0,699.9990234,0.386135846,141.7080536,0.0,127.3454998,36.3593459,23.5,-0.22238587,-7.640412611,-6.382432489,-0.395650939,-7.539980841,-6.243601251,-0.404268646,1018.513916,0.054676716,0.029194471,-0.101076821,0.411690249,0.03900135,-0.719973505,0.556513804,1.632829088,0.877312097,-2.201056623,20.0,0.165680849,-0.128761649,-0.157253027,-77.62962963,3449.666667,19.11529362,26.98588203,-1.884705838,0,0,0,1,-99.0,-99.0,-99.0,0
71,45.0,1.5,0.0,699.9990234,0.386135846,141.7080536,0.0,127.3454998,36.3593459,23.5,-1.219134787,-7.707170665,-6.100911528,-0.891016155,-7.53183763,-6.206539965,-0.368861771,1018.509521,-0.10020817,0.065938016,0.08425969,0.402023906,0.0367345,-0.737377748,0.540698749,1.713247621,0.876526839,-2.270127833,23.0,-0.299776419,-0.208374023,0.066063046,-77.62962963,3449.666667,21.00374949,25.95749927,-1.098749976,0,0,0,1,-99.0,-99.0,-99.0,0
72,45.0,1.5,0.0,699.9990234,0.386135846,141.7080536,0.0,127.3454998,36.3593459,23.5,-0.900669852,-7.819419833,-5.95596981,-0.866057765,-7.858087516,-5.801005459,-0.382073212,1018.511255,0.014848303,-0.067872015,-0.046312748,0.381740098,0.02573245,-0.737192202,0.556762704,1.719010699,0.929581788,-2.256021321,24.33333333,-0.040294975,0.0315624,-0.166724491,-77.62962963,3449.666667,21.05294082,27.89999928,-2.163529357,0,0,0,1,-99.0,-99.0,-99.0,0
73,45.0,1.5,0.0,699.9990234,0.386135846,141.7080536,0.0,127.3454998,36.3593459,23.5,-0.801518697,-7.94251369,-5.932167923,-0.628663778,-7.809248996,-5.89162848,-0.417479706,1018.515527,-0.00616546,0.007692018,-0.000192,0.4068873,0.00673425,-0.72921885,0.549786708,1.676588184,0.921663773,-2.28296181,23.0,-0.168031165,-0.151355624,-0.053595281,-77.62962963,3449.666667,20.08588185,27.13058752,-0.631764684,0,0,0,1,-99.0,-99.0,-99.0,0
74,45.0,1.5,0.0,699.9990234,0.386135846,141.7080536,0.0,127.3454998,36.3593459,23.5,-0.65318809,-7.83676067,-6.184860826,-0.559676985,-7.797100306,-5.902165747,-0.40638237,1018.514185,-0.060471385,-0.019735832,0.038750239,0.39811735,0.02132255,-0.726424849,0.559058401,1.665527111,0.92040672,-2.235788381,23.6,-0.081868948,-0.044508815,-0.305949473,-77.62962963,3449.666667,19.8149997,27.60749924,-2.186249953,0,0,0,1,-99.0,-99.0,-99.0,0
75,45.0,1.5,0.0,699.9990234,0.370822102,141.7080536,0.0,127.3455085,36.359337,23.5,-0.50476946,-7.943358786,-5.966532847,-0.427814075,-7.810029054,-5.908321953,-0.435447693,1018.517603,0.033968384,0.002927265,-0.01674687,0.401400803,0.02045675,-0.721935999,0.563023999,1.642880201,0.921854812,-2.219246757,24.0,-0.09868695,-0.123639989,-0.01463511,-77.62962963,3449.666667,19.84235247,28.03411697,-2.156470537,0,0,0,1,-99.0,-99.0,-99.0,0
76,45.0,1.5,0.0,699.9990234,0.370822102,141.7080536,0.0,127.3455085,36.359337,23.5,-0.438715646,-7.909698066,-5.934139729,-0.387907158,-7.860678029,-5.846627688,-0.469797134,1018.521777,0.042520498,0.004301714,0.008023716,0.414046253,-0.000669,-0.720890704,0.555579004,1.637011039,0.930204573,-2.265287471,23.33333333,-0.075744149,-0.047372317,-0.081477046,-77.62962963,3449.666667,19.31999958,27.35294039,0.762352921,0,0,0,1,-99.0,-99.0,-99.0,0
77,45.0,1.5,0.0,699.9990234,0.370822102,141.7080536,0.0,127.3455085,36.359337,23.5,-0.355100887,-7.893325508,-6.062154204,-0.19348452,-7.858186054,-5.860340405,-0.504674149,1018.526001,-0.002775159,0.067556808,0.066758409,0.402806051,0.0197438,-0.713648403,0.572483501,1.603759158,0.929717889,-2.18269459,23.5,-0.177268932,-0.050103641,-0.182689524,-77.62962963,3449.666667,19.44374967,28.48124957,-0.300000002,0,0,0,1,-99.0,-99.0,-99.0,0
78,45.0,1.5,0.0,699.9990234,0.370822102,141.7080536,0.0,127.3455085,36.359337,23.5,-0.315199237,-7.928288965,-6.024558712,-0.240279565,-7.859773302,-5.856402922,-0.497276306,1018.525171,0.013809828,-0.004555832,-0.026215283,0.388649051,0.03590615,-0.714711657,0.580219004,1.611563802,0.929990694,-2.143424153,23.0,-0.093841485,-0.063360882,-0.181718659,-77.62962963,3449.666667,20.00823503,29.03646985,-1.902352908,0,0,0,1,-99.0,-99.0,-99.0,0
79,45.0,1.5,0.0,699.9990234,0.370822102,141.7080536,0.0,127.3455085,36.359337,23.5,-0.459419086,-7.926317187,-5.947660278,-0.497464289,-7.78649745,-5.938942409,-0.364105606,1018.509155,-0.032005065,-0.005075069,0.004450153,0.389640747,0.03655585,-0.723850542,0.568156049,1.654443991,0.917467946,-2.187968445,23.5,0.047101197,-0.116165709,0.011675715,-77.62962963,3449.666667,19.89882301,28.37294074,-2.911764615,0,0,0,1,-99.0,-99.0,-99.0,0
80,45.0,1.5,0.0,699.9990234,0.370822102,141.7080536,0.0,127.3455085,36.359337,23.5,-1.13728055,-7.567105561,-7.014327288,-0.482169719,-7.320242906,-6.328876519,-0.386301041,1018.511841,0.680874684,-0.620185824,-0.568113855,0.419953996,0.0368106,-0.723191154,0.536429545,1.651426208,0.854198003,-2.248448396,23.0,-0.522946857,-0.178506112,-0.862567258,-78.14705882,3090.705882,20.16374969,27.21374941,-0.776249979,0,0,0,1,-99.0,-99.0,-99.0,0
81,45.0,1.5,0.0,699.9990234,0.350348204,141.7080536,0.0,127.3455151,36.3593302,23.5,-0.085771356,-5.053750695,-7.936739269,1.746350588,-1.847966781,-6.997594953,-0.260000229,1018.49646,-0.808200982,0.173633532,0.966624025,0.005567554,-0.182430249,-0.103145298,0.180091101,1.373786491,0.244118004,1.634369111,69.0,-2.052219212,-3.265246511,-0.757461131,-78.14705882,3090.705882,8.078823258,-0.621176425,4.524705789,0,0,0,1,-99.0,-99.0,-99.0,0
82,45.0,1.5,0.0,699.9990234,0.350348204,141.7080536,0.0,127.3455151,36.3593302,23.5,-0.761097706,-8.264895832,-5.719077475,-0.741195211,-7.784409595,-5.88067925,-0.369918823,1018.509741,0.074743634,-0.098354195,-0.03565315,0.523921049,-0.17734345,-0.706750396,0.423277453,1.695757031,0.91986731,-1.865510738,24.0,0.014532809,-0.44231863,0.239648056,-78.14705882,3090.705882,24.28941132,14.94705851,18.41999963,0,0,0,1,-99.0,-99.0,-99.0,0
83,45.0,1.5,0.0,699.9990234,0.350348204,141.7080536,0.0,127.3455151,36.3593302,23.5,-0.673838709,-8.109857768,-5.496806026,-0.678585623,-7.995339966,-5.628608322,-0.422764206,1018.515991,0.006021296,0.282337035,0.240396857,0.354983799,0.04552085,-0.725550854,0.579012597,1.690753621,0.953887644,-2.156254488,22.2,-0.004860109,-0.091682339,0.125487399,-78.14705882,3090.705882,24.46499932,17.35874957,16.29749954,0,0,0,1,-99.0,-99.0,-99.0,0
84,45.0,1.5,0.0,699.9990234,0.350348204,141.7080536,0.0,127.3455151,36.3593302,23.5,-0.14393817,-8.1222252,-5.849072541,-0.384202184,-7.876943707,-5.82390492,-0.513130188,1018.527075,0.043558967,0.014289364,0.004755583,0.239598501,0.201470551,-0.691384298,0.650185204,1.636743492,0.933080035,-1.693352753,22.0,0.238390846,-0.256168485,-0.030575871,-78.14705882,3090.705882,24.14470527,20.81294082,13.07294088,0,0,0,1,-99.0,-99.0,-99.0,0
85,45.0,1.5,0.0,699.9990234,0.350348204,141.7080536,0.0,127.3455151,36.3593302,23.5,-0.44251832,-8.052650368,-5.76597713,-0.250386928,-7.993756795,-5.674764752,-0.570732117,1018.533984,-0.012396289,0.002316402,0.005519167,0.221003401,0.208316551,-0.685061154,0.662073401,1.614868051,0.952976707,-1.633698124,22.0,-0.180343112,-0.056513453,-0.075684762,-78.14705882,3090.705882,24.03882262,20.2305879,13.96941146,0,0,0,1,-99.0,-99.0,-99.0,0
86,45.0,1.5,0.0,699.9990234,0.326503843,141.7080536,0.0,127.3455197,36.3593256,23.5,-0.362134069,-8.117040575,-5.660364926,-0.360580967,-8.000578928,-5.658111286,-0.453414917,1018.519727,-0.00998337,-0.012527625,-0.02038152,0.210760351,0.217524251,-0.686282498,0.661188602,1.634508276,0.954253906,-1.624451894,22.5,-0.000955,-0.116491508,-0.044811916,-78.14705882,3090.705882,24.42374969,20.3549993,15.35624969,0,0,0,1,-99.0,-99.0,-99.0,0
87,45.0,1.5,0.0,699.9990234,0.326503843,141.7080536,0.0,127.3455197,36.3593256,23.5,-0.469700379,-8.091803775,-5.781187815,-0.66654432,-7.824564505,-5.865317607,-0.452358246,1018.519702,-0.029500515,-0.303727088,-0.285588667,0.269320399,0.16977625,-0.709014195,0.625301546,1.683358306,0.924021146,-1.832443196,21.33333333,0.189485064,-0.276703763,0.083622789,-78.14705882,3090.705882,24.28941132,17.08235241,17.88352899,0,0,0,1,-99.0,-99.0,-99.0,0
88,45.0,1.5,0.0,699.9990234,0.326503843,141.7080536,0.0,127.3455197,36.3593256,23.5,-1.015595036,-8.008426666,-5.747386259,-0.793076208,-8.086773348,-5.475107193,-0.377846146,1018.510571,-0.013526389,0.122656855,0.072134025,0.291531503,0.11018225,-0.726542196,0.611802301,1.714584947,0.970800847,-1.983896291,23.83333333,-0.237659085,0.066910458,-0.270314384,-78.14705882,3090.705882,24.27529369,15.8858821,19.06941122,0,0,0,1,-99.0,-99.0,-99.0,0
89,45.0,1.5,0.0,699.9990234,0.326503843,141.7080536,0.0,127.3455197,36.3593256,23.5,-1.037618855,-8.166123033,-5.725908145,-0.882297385,-7.982416487,-5.605782604,-0.380488586,1018.510938,-0.001858863,0.007172779,-0.001383609,0.275480697,0.14045995,-0.724365553,0.615572503,1.726552212,0.95268743,-1.92726509,25.25,-0.159451596,-0.188046217,-0.097260249,-78.14705882,3090.705882,24.47249925,16.27124971,16.58624959,0,0,0,1,-99.0,-99.0,-99.0,0
90,45.0,1.5,0.0,699.9990234,0.326503843,141.7080536,0.0,127.3455197,36.3593256,23.5,-0.850530919,-8.22841821,-5.429511042,-0.799477753,-8.085626936,-5.48725009,-0.366748428,1018.509375,-0.011021842,-0.095941275,-0.027101036,0.281310497,0.1231445,-0.724904102,0.616329893,1.715562743,0.969471613,-1.950367177,24.6,-0.039476143,-0.124700356,0.067090774,-78.14705882,3090.705882,23.77764635,15.79058776,17.52352916,0,0,0,1,-99.0,-99.0,-99.0,0
91,45.0,1.5,0.0,699.9990234,0.300700933,141.7080536,0.0,127.3455227,36.3593225,23.5,-0.668002674,-8.138280925,-5.775554208,-0.553625084,-8.046661353,-5.571671152,-0.488821411,1018.524072,0.007701179,0.042938939,0.032488867,0.295393097,0.1164861,-0.717269602,0.62000955,1.669624823,0.962853956,-1.935582989,23.5,-0.129461521,-0.100098085,-0.196017146,-78.14705882,3090.705882,23.52705821,15.78705844,20.06117608,0,0,0,1,-99.0,-99.0,-99.0,0
92,45.0,1.5,0.0,699.9990234,0.300700933,141.7080536,0.0,127.3455227,36.3593225,23.5,-0.623110028,-8.138140082,-5.646298617,-0.629017556,-8.001004028,-5.633290958,-0.438089752,1018.517993,0.031341662,-0.020041267,-0.011615602,0.308195999,0.10618295,-0.721614701,0.610677594,1.681834573,0.954400232,-1.98277666,24.0,0.017400061,-0.111996222,0.010216832,-78.14705882,3090.705882,23.74874949,15.41999966,19.64249945,0,0,0,1,-99.0,-99.0,-99.0,0
93,45.0,1.5,0.0,699.9990234,0.300700933,141.7080536,0.0,127.3455227,36.3593225,23.5,-0.567583969,-8.075466408,-5.774849976,-0.555173257,-7.971800709,-5.683724236,-0.477195358,1018.522607,0.016772527,-0.031372817,-0.047656652,0.314524749,0.1040624,-0.719352204,0.610530147,1.668102378,0.949148867,-1.982013971,23.0,-0.004488482,-0.097623706,-0.096773458,-78.14705882,3090.705882,23.4211759,15.02823493,20.11411745,0,0,0,1,-99.0,-99.0,-99.0,0
94,45.0,1.5,0.0,699.9990234,0.300700933,141.7080536,0.0,127.3455227,36.3593225,23.5,-1.033904197,-8.140252674,-5.39979399,-0.91278666,-7.924609566,-5.688125443,-0.424878693,1018.516431,0.06576392,0.00182771,0.015690072,0.321247448,0.092240501,-0.733242697,0.5916989,1.73042115,0.941923073,-2.072648454,21.5,-0.139137973,-0.212572765,0.284127426,-78.14705882,3090.705882,22.89176414,13.29529392,20.2305879,0,0,0,1,-99.0,-99.0,-99.0,0
95,45.0,1.5,0.0,699.9990234,0.300700933,141.7080536,0.0,127.3455227,36.3593225,23.5,-0.01586207,-7.467294306,-6.980657816,-0.374206847,-7.810555172,-5.883553648,-0.393698883,1018.512598,-0.002836253,-0.023187228,-0.008744534,0.358597702,0.07318365,-0.716278449,0.592919299,1.632182813,0.9239914,-2.061455429,19.5,0.347750108,0.340896606,-1.084504318,-78.14705882,3090.705882,19.37249959,11.98874974,22.9574995,0,0,0,1,-99.0,-99.0,-99.0,0
96,45.0,1.5,0.0,699.9990234,0.274094999,141.7080536,0.0,127.3455244,36.3593207,23.5,-1.254459164,-7.734775122,-6.014277486,-0.994094938,-7.644666481,-6.046561027,-0.380488586,1018.510962,-0.046513116,-0.014085333,-0.070655721,0.386547907,0.0399235,-0.740610296,0.547192046,1.734629196,0.894907552,-2.260490191,21.66666667,-0.258110783,-0.114459825,0.048782873,-78.14705882,3090.705882,24.17294065,11.13882323,24.32823473,0,0,0,1,-99.0,-99.0,-99.0,0
97,45.0,1.5,0.0,699.9990234,0.274094999,141.7080536,0.0,127.3455244,36.3593207,23.5,-0.81827863,-7.908289657,-6.067092391,-0.722666344,-7.868252015,-5.802685142,-0.386301422,1018.51167,-0.010075001,0.018901392,0.031450396,0.34311465,0.0778134,-0.728442901,0.587372649,1.693977362,0.931449613,-2.091978061,23.5,-0.108027306,-0.02579174,-0.258541274,-78.14705882,3090.705882,28.63058752,12.88588215,20.40352911,0,0,0,1,-99.0,-99.0,-99.0,0
98,45.0,1.5,0.0,699.9990234,0.274094999,141.7080536,0.0,127.3455244,36.3593207,23.5,-0.40927135,-7.934477091,-5.823624521,-0.794940117,-7.772741866,-5.92343545,-0.411138535,1018.514697,-0.022322847,-0.02587503,-0.004437936,0.317810901,0.11928565,-0.725426453,0.598592204,1.703837317,0.915193877,-2.001530093,22.0,0.362174946,-0.155180883,0.106065965,-78.14705882,3090.705882,28.33124948,10.32749975,17.07374966,0,0,0,1,-99.0,-99.0,-99.0,0
99,45.0,1.5,0.0,699.9990234,0.274094999,141.7080536,0.0,127.3455244,36.3593207,23.5,-0.807856479,-7.953358314,-6.055825177,-0.436112417,-8.045891953,-5.582608676,-0.413251495,1018.51499,-0.020398623,-0.001287703,0.038292088,0.307977247,0.10413815,-0.714998952,0.618691504,1.648244083,0.962680936,-1.951554424,23.66666667,-0.387877244,0.081456542,-0.485321665,-78.14705882,3090.705882,25.99411695,11.15647035,17.09294078,0,0,0,1,-99.0,-99.0,-99.0,0
100,45.0,1.5,0.0,699.9990234,0.274094999,141.7080536,0.0,127.3455244,36.3593207,23.5,0.35984542,-4.585599619,-8.291373674,0.891907015,-2.985617933,-8.031405401,-0.376789093,1018.510449,1.0487072,-0.795717961,-0.583385472,0.5595966,0.19324515,-0.635424198,0.406078401,1.491360885,0.349843024,-2.231846344,48.2,-0.571313609,-1.606361771,-0.300910354,-78.14705882,3090.705882,15.46235244,-7.40823521,15.44823506,0,0,0,1,-99.0,-99.0,-99.0,0
101,45.0,1.5,0.0,699.9990234,0.247556657,141.7080536,0.0,127.3455251,36.3593201,23.5,4.091666035,4.116955596,-8.774119288,3.902592027,3.368362116,-7.98060286,-0.165935135,1018.485083,0.291997859,-0.062404769,0.041071527,0.812536153,0.312165799,-0.440047453,0.180405349,1.116572142,-0.360953242,-2.476747727,143.1666667,0.451157272,0.864595991,-1.043897796,-78.14705882,3090.705882,7.627499878,-22.59749961,10.90874977,0,0,0,1,-99.0,-99.0,-99.0,0
102,45.0,1.5,0.0,699.9990234,0.247556657,141.7080536,0.0,127.3455251,36.3593201,23.5,4.226458371,5.806679747,-6.56552401,4.232396317,6.244860482,-6.195859933,-0.042805481,1018.470117,0.007426288,-0.103180026,-0.069372913,0.420300099,0.17913595,-0.203184551,0.02705385,0.968168613,-0.69323329,-2.729132485,199.4,-0.071266401,-0.626096106,-0.363136184,-78.14705882,3090.705882,7.327058652,-25.3164702,0.158823514,0,0,0,1,-99.0,-99.0,-99.0,0
103,45.0,1.5,0.0,699.9990234,0.247556657,141.7080536,0.0,127.3455251,36.3593201,23.5,4.022240797,4.075337391,-5.891183604,5.20359385,5.555130732,-5.325388575,-0.077155304,1018.474341,-0.654507321,0.501943072,0.016026051,-0.012200451,-0.044466001,-0.0671914,0.05819615,0.762425406,-0.61856169,-1.697768664,206.6666667,-1.450089264,-1.491806901,-0.78994838,-78.14705882,3090.705882,4.916470444,-26.14588165,-0.218823545,0,0,0,1,-99.0,-99.0,-99.0,0
104,45.0,1.5,0.0,699.9990234,0.247556657,141.7080536,0.0,127.3455251,36.3593201,23.5,0.298835428,-6.020104721,-9.519038171,-0.370961633,-6.514202404,-7.181904221,-0.178090286,1018.486621,-0.535480197,0.507563049,0.369319962,0.541969049,-0.0484904,-0.715280101,0.427833702,1.626146489,0.735072401,-2.58032186,39.33333333,0.447219278,0.403653944,-2.303494358,-78.14705882,3090.705882,15.55124968,-2.759999919,24.09374952,0,0,0,1,-99.0,-99.0,-99.0,0
105,45.0,1.5,0.0,699.9990234,0.247556657,141.7080536,0.0,127.3455251,36.3593201,23.5,-0.758703446,-6.800726273,-7.107052663,-0.71641709,-6.961350083,-6.856346273,-0.42382164,1018.516284,-0.144159921,-0.085678742,0.022440135,0.43847775,0.05705315,-0.729833844,0.520415598,1.673912507,0.789788482,-2.265980983,27.33333333,-0.106614888,0.150117183,-0.220052624,-78.14705882,3090.705882,21.82941145,1.062352903,19.35529372,0,0,0,1,-99.0,-99.0,-99.0,0
106,45.0,1.5,0.0,699.9990234,0.221702337,141.7080536,0.0,127.3455249,36.3593202,23.5,-0.631666037,-6.738475239,-7.369014572,-0.280235251,-7.187143803,-6.610301661,-0.487765503,1018.524072,0.150093862,-0.303116223,-0.51603758,0.501636948,-0.05132135,-0.713882795,0.477420145,1.60766179,0.824572334,-2.478509438,23.83333333,-0.261349705,0.415416384,-0.761670446,-78.14705882,3090.705882,13.29176437,-1.348235255,27.10941102,0,0,0,1,-99.0,-99.0,-99.0,0
107,45.0,1.5,0.0,699.9990234,0.221702337,141.7080536,0.0,127.3455249,36.3593202,23.5,0.00015,-4.795732468,-8.819011927,-0.416398657,-4.752309334,-8.526206493,-0.412723541,1018.514941,-0.004516121,0.016396846,0.23749525,0.646780503,-0.114463149,-0.710164106,0.234426653,1.620917803,0.507650942,-1.408114731,38.6,0.315240552,-0.144461501,-0.187397647,-78.14705882,3090.705882,5.077499868,-8.707499824,23.71499956,0,0,0,1,-99.0,-99.0,-99.0,0
108,45.0,1.5,0.0,699.9990234,0.221702337,141.7080536,0.0,127.3455249,36.3593202,23.5,-1.170800402,-6.433979764,-7.973357649,-1.032657853,-6.577191949,-7.177678704,-0.401626205,1018.513599,0.050278495,-0.046797165,-0.203824348,0.568808553,-0.1396097,-0.729023802,0.3509207,1.712931901,0.736376613,-2.873561513,22.0,-0.116234952,0.249243307,-0.676500344,-78.14705882,3090.705882,0.652941132,10.89176447,8.664705753,0,0,0,1,-99.0,-99.0,-99.0,0
109,45.0,1.5,0.0,699.9990234,0.221702337,141.7080536,0.0,127.3455249,36.3593202,23.5,-1.397833992,-6.212579839,-7.824771797,-1.682500476,-5.881085849,-7.635423923,-0.399512482,1018.513257,-0.255276312,-0.6017377,-0.681459896,0.170637897,0.066736999,-0.306028204,0.172967949,1.788038379,0.644781321,0.768579,21.75,0.211577746,-0.334571314,-0.241141605,-78.14705882,3090.705882,-6.935293934,19.77176419,8.361176294,0,0,0,1,-99.0,-99.0,-99.0,0
110,45.0,1.5,0.0,699.9990234,0.221702337,141.7080536,0.0,127.3455249,36.3593202,30.0,-0.49950559,-5.971919954,-7.8355636,-1.007653321,-5.462778807,-8.065405202,-0.433861923,1018.517456,-0.085241966,-0.808149058,-1.08490582,-0.349627051,0.709195602,-0.007619299,0.537525849,1.694452983,0.591450089,0.502023687,20.0,0.478758016,-0.467241287,0.239358783,-78.14705882,3090.705882,4.9612498,19.35749954,7.22999984,0,0,0,1,-99.0,-99.0,-99.0,0
111,45.0,1.5,0.0,1600.0,0.0,0.0,0.0,127.341814,36.360988,32.0,-0.945879379,-3.897879369,-9.120356167,-0.962072414,-3.89665457,-8.879043484,-0.403211975,1018.51377,0.160509118,-0.269213202,-0.620067923,0.162661601,0.5754456,-0.45509115,0.6321825,1.677067298,0.411310545,-0.960525013,18.25,-0.029636197,0.058632076,-0.256431866,-78.14705882,3090.705882,13.12235277,4.948235152,16.87411735,0,0,0,1,-99.0,-99.0,-99.0,0
112,45.0,1.5,0.0,1600.0,0.0,0.0,0.0,127.341814,36.360988,32.0,-0.093376714,-4.171953412,-9.003600121,-0.371849438,-3.967290533,-8.941794682,-0.437561798,1018.517871,-0.079347121,-0.061580104,0.176927957,0.352711952,0.418332352,-0.585304302,0.596683198,1.61152215,0.416802894,-1.499737114,13.4,0.295232646,-0.205331922,-0.069417715,-78.14705882,3090.705882,13.41176437,5.294117465,19.74705853,0,0,0,1,-99.0,-99.0,-99.0,0
113,45.0,1.5,0.0,1600.0,0.0,0.0,0.0,127.341814,36.360988,32.0,-0.033370207,-5.368862003,-8.409890175,-0.159139128,-5.219267011,-8.255153275,-0.477724075,1018.522827,-0.233376794,0.076750332,-0.13626265,0.365441951,0.31339075,-0.637979242,0.598153999,1.592791325,0.562886487,-1.676183027,17.66666667,0.118197031,-0.179104424,-0.192686152,-78.14705882,3090.705882,13.36499983,7.97999987,18.40874958,0,0,0,1,-99.0,-99.0,-99.0,0
114,45.0,1.5,0.0,1600.0,0.0,0.0,0.0,127.341814,36.360988,32.0,-0.244356872,-7.651679712,-6.33243429,-0.093193442,-7.588511753,-6.184835124,-0.403739929,1018.513867,-0.139395171,-0.117138297,0.012605205,0.323163398,0.14578755,-0.69436025,0.62484045,1.583985645,0.886594424,-1.850832283,12.25,-0.133903529,-0.122489643,-0.110670972,-78.14705882,3090.705882,14.52352905,12.24352907,16.71176411,0,0,0,1,-99.0,-99.0,-99.0,0
115,45.0,1.5,0.0,1600.0,0.0,0.0,0.0,127.341814,36.360988,32.0,0.146614124,-7.405491997,-6.646084337,0.081880926,-7.278058338,-6.568925691,-0.46609726,1018.521265,0.055867902,-0.038000705,-0.019037614,0.375597046,0.123824751,-0.693130353,0.602518201,1.558584768,0.836469081,-1.942459315,11.0,0.060338995,-0.135813642,-0.093383431,-78.14705882,3090.705882,14.2764703,10.48941152,17.62588209,0,0,0,1,-99.0,-99.0,-99.0,0
116,0.0,1.5,0.0,1600.0,0.007429152,0.0,0.0,127.3434393,36.3605989,32.0,-0.241073552,-7.184320927,-6.844333827,-0.075759714,-7.092317414,-6.771460652,-0.528455353,1018.528833,0.012038321,0.019603887,-0.015647314,0.4001807,0.1116208,-0.70096575,0.579599208,1.581975794,0.808460411,-2.025249696,10.5,-0.158879213,-0.084281874,-0.067665553,-78.14705882,3090.705882,14.47499979,9.037499726,19.78874946,0,0,0,1,-99.0,-99.0,-99.0,0
117,0.0,1.5,0.0,1600.0,0.007429152,0.0,0.0,127.3434393,36.3605989,32.0,-0.111122521,-7.219865294,-6.865653403,-0.012892633,-7.116528821,-6.746145606,-0.403740692,1018.513867,-0.026507276,0.023207993,0.036490035,0.399165098,0.111610001,-0.698695201,0.583088648,1.572647297,0.812076721,-2.014012396,11.5,-0.077970094,-0.09993515,-0.109501171,-78.14705882,3090.705882,14.51294091,9.758823451,19.30941133,0,0,0,1,-99.0,-99.0,-99.0,0
118,0.0,1.5,0.0,1600.0,0.007429152,0.0,0.0,127.3434393,36.3605989,32.0,-0.078306869,-7.226625555,-6.793825206,-0.042791245,-7.140925074,-6.721042371,-0.384187698,1018.511499,0.011213654,0.031882278,0.030137037,0.393613349,0.1151847,-0.6992033,0.585546449,1.57715888,0.815661779,-2.003991121,11.5,-0.038973238,-0.082242918,-0.067085862,-78.14705882,3090.705882,15.22235253,10.58117631,19.09764671,0,0,0,1,-99.0,-99.0,-99.0,0
119,0.0,1.5,0.0,1600.0,0.007429152,0.0,0.0,127.3434393,36.3605989,32.0,-0.096219924,-7.125661135,-6.974073619,-0.014124943,-6.991293073,-6.875697947,-0.401098251,1018.513525,0.035129026,-0.042307304,-0.022641719,0.397093247,0.1268126,-0.696102595,0.584405547,1.57288906,0.793693599,-1.988924658,10.5,-0.233083934,-0.18339088,-0.180110168,-78.14705882,3090.705882,14.93249977,9.43874976,18.29999971,0,0,0,1,-99.0,-99.0,-99.0,0
120,0.0,1.5,0.0,1600.0,0.007429152,0.0,0.0,127.3434393,36.3605989,32.0,-0.087038932,-6.904806866,-7.034661041,0.016843278,-6.86241796,-7.0048002,-0.534797287,1018.529541,-0.010472062,-0.005594304,-0.022030855,0.41165095,0.122697299,-0.695606449,0.575507149,1.568414354,0.775080955,-2.015455401,12.0,-0.091424944,-0.055360198,-0.032452297,-74.0,2438.666667,14.72470553,8.244705649,19.65529375,0,0,0,1,-99.0,-99.0,-99.0,0
121,0.0,1.5,0.0,1600.0,0.013703806,0.0,0.0,127.3437322,36.3605288,32.0,-0.040139314,-7.090574405,-6.986634731,-0.152458407,-7.012290025,-6.853450704,-0.48248024,1018.523364,-0.01728321,0.00408791,0.002159409,0.429079799,0.082393949,-0.707786295,0.555077207,1.593010569,0.796719858,-2.128848481,12.0,0.112234593,-0.087572718,-0.139747143,-74.0,2438.666667,14.20235264,8.484705757,19.66235251,0,0,0,1,-99.0,-99.0,-99.0,0
122,0.0,1.5,0.0,1600.0,0.013703806,0.0,0.0,127.3437322,36.3605288,32.0,-0.064346135,-6.954171181,-6.823383927,-0.045151516,-6.949681425,-6.918076396,-0.432805252,1018.51731,0.012099408,-0.008618087,-0.017479909,0.424344301,0.0972809,-0.701965845,0.563571751,1.577335793,0.787654996,-2.083118773,12.0,-0.023444457,-0.018975067,0.079428959,-74.0,2438.666667,14.26499969,7.601249784,18.46124983,0,0,0,1,-99.0,-99.0,-99.0,0
123,0.0,1.5,0.0,1600.0,0.013703806,0.0,0.0,127.3437322,36.3605288,32.0,0.048730534,-6.283422105,-7.147473644,0.137757836,-6.33116436,-7.445507789,-0.506789398,1018.526294,0.182683529,-0.05311962,0.030320297,0.453729652,0.121850501,-0.690809304,0.548061848,1.554152435,0.704351649,-2.077778935,12.66666667,-0.060422756,0.063312054,0.290456986,-74.0,2438.666667,14.98941141,2.410588164,14.62941142,0,0,0,1,-99.0,-99.0,-99.0,0
124,0.0,1.5,0.0,1600.0,0.013703806,0.0,0.0,127.3437322,36.3605288,32.0,-0.645045808,-5.802454612,-7.260849588,-0.720937874,-6.083019567,-7.625933647,-0.831788254,1018.565454,-0.043611508,0.103445144,-0.145975414,0.447405452,0.13062655,-0.720315447,0.512342504,1.665443683,0.669862825,-2.168425143,13.66666667,0.053054915,0.282290292,0.35416193,-74.0,2438.666667,14.54823494,-2.407058751,6.123529238,0,0,0,1,-99.0,-99.0,-99.0,0
125,0.0,1.5,0.0,1600.0,0.013703806,0.0,0.0,127.3437322,36.3605288,32.0,-1.181424979,-6.267163962,-7.462655306,-0.905382624,-6.463626838,-7.313201594,-1.472275543,1018.642773,-0.062884299,0.051521595,0.15139379,0.414614999,0.13453435,-0.726381505,0.530398104,1.693693161,0.719947305,-2.13231771,18.75,-0.288283078,0.229174662,-0.239538288,-74.0,2438.666667,3.963749867,7.777499866,6.731249839,0,0,0,1,-99.0,-99.0,-99.0,0
126,0.0,1.5,0.0,1600.0,0.020205349,0.0,0.0,127.3438553,36.3604993,32.0,-0.592794287,-3.480148848,-9.095145843,-0.893891523,-2.781667431,-9.041290522,-2.703046799,1018.791211,0.649445654,0.352403275,0.305392921,0.339778549,0.48795185,-0.528915949,0.577053753,1.670781261,0.296256384,-1.392387038,10.4,0.284069718,-0.65459576,0.036183596,-74.0,2438.666667,-3.472941115,11.56941161,11.30470568,0,0,0,1,-99.0,-99.0,-99.0,0
127,0.0,1.5,0.0,1600.0,0.020205349,0.0,0.0,127.3438553,36.3604993,32.0,-1.137843896,-1.759651148,-9.988914602,-1.103316358,-1.823843014,-9.566373158,-3.837639236,1018.928052,-0.076873116,0.007600384,-0.075603736,0.284070446,0.598137948,-0.439088251,0.598530006,1.685587645,0.187103633,-1.097654694,8.0,-0.043301859,0.050882506,-0.417872524,-74.0,2438.666667,-8.975293908,22.16470539,14.23411734,0,0,0,1,-99.0,-99.0,-99.0,0
128,0.0,1.5,0.0,1600.0,0.020205349,0.0,0.0,127.3438553,36.3604993,32.0,-0.840091162,-1.894918866,-9.788693428,-0.721625921,-1.794444257,-9.612737083,-5.465808868,1019.124512,0.012435384,-0.018727906,0.075066175,0.0851857,0.697135302,-0.223797502,0.674753746,1.645723706,0.184020605,-0.450004525,9.5,0.016751422,-0.05644989,-0.250358343,-74.0,2438.666667,7.297499865,21.69749963,8.456249759,0,0,0,1,-99.0,-99.0,-99.0,0
129,0.0,1.5,0.0,1600.0,0.020205349,0.0,0.0,127.3438553,36.3604993,32.0,-0.182950762,-1.882040816,-9.815681682,-0.155286278,-1.854532033,-9.625570869,-6.994099808,1019.309082,-0.015358985,-0.044842395,0.035543193,0.0452573,0.689289549,-0.179893901,0.699603048,1.586894077,0.190262628,-0.322837963,10.5,-0.020094359,-0.048677021,-0.195505047,-74.0,2438.666667,-12.73764684,18.10941146,7.439999777,0,0,0,1,-99.0,-99.0,-99.0,0
130,0.0,1.5,0.0,1600.0,0.020205349,0.0,0.0,127.3438553,36.3604993,32.0,0.10098206,-2.084990831,-9.765542816,0.147029352,-2.07395454,-9.583202839,-8.353813553,1019.473096,-0.021406551,-0.020468872,-0.018823813,-0.19266315,0.6930509,0.0441156,0.677686605,1.555447245,0.213097414,0.344100179,10.5,-0.043836109,-0.017683941,-0.235598612,-74.0,2438.666667,-22.61999944,24.31058749,17.23411723,0,0,0,1,-99.0,-99.0,-99.0,0
131,0.0,1.5,0.0,1600.0,0.027041094,0.0,0.0,127.3439237,36.3604829,32.0,-0.05671438,-2.382153764,-9.981731653,0.01833388,-2.292051256,-9.534226084,-10.08080444,1019.681641,-0.050697541,0.024704612,0.050448306,-0.287525902,0.693244052,0.1282574,0.645580947,1.568882293,0.235921808,0.602383976,9.0,-0.070169925,-0.081872213,-0.423203754,-74.0,2438.666667,-6.161249854,20.09624958,19.52249932,0,0,0,1,-99.0,-99.0,-99.0,0
132,0.0,1.5,0.0,1600.0,0.027041094,0.0,0.0,127.3439237,36.3604829,32.0,-0.080278624,-2.873270624,-10.14609163,-0.075704062,-2.597611368,-9.455853796,-11.78137093,1019.886865,-0.006531983,-0.003761708,0.038444805,-0.196899952,0.708520454,0.0112903,0.675060397,1.578802472,0.268083523,0.29760275,7.0,0.01536834,-0.275278962,-0.683660603,-74.0,2438.666667,3.850588143,20.9470584,17.29411737,0,0,0,1,-99.0,-99.0,-99.0,0
133,0.0,1.5,0.0,1600.0,0.027041094,0.0,0.0,127.3439237,36.3604829,32.0,0.125065648,-2.834680529,-10.1628515,0.089744248,-2.592933738,-9.457135057,-12.83299713,1020.013794,0.004830112,0.000209,0.008542951,-0.019383949,0.679355347,-0.166227851,0.70564386,1.561306351,0.267587909,-0.210342407,8.0,0.006984454,-0.236500514,-0.705603838,-74.0,2438.666667,13.35176445,21.98470553,14.67882325,0,0,0,1,-99.0,-99.0,-99.0,0
134,0.0,1.5,0.0,1600.0,0.027041094,0.0,0.0,127.3439237,36.3604829,32.0,0.196480175,-2.760000274,-9.843162835,0.140707601,-2.616260672,-9.449795866,-13.36356506,1020.078052,-0.005707314,-0.011702957,0.015506814,0.143165899,0.625034153,-0.319407848,0.697545108,1.555900812,0.27005652,-0.670875058,7.5,0.049876673,-0.158703828,-0.336443138,-74.0,2438.666667,17.9512496,22.69874954,12.43124974,0,0,0,1,-99.0,-99.0,-99.0,0
135,0.0,1.5,0.0,1600.0,0.027041094,0.0,0.0,127.3439237,36.3604829,32.0,0.289284734,-2.770880124,-9.65695527,0.319075628,-2.712070036,-9.418660116,-13.59344254,1020.105664,-0.005340795,-0.009442754,-0.005965099,0.174321699,0.601675299,-0.348828547,0.697030354,1.53693015,0.280207396,-0.761097956,7.5,-0.063127653,-0.064331019,-0.266061735,-74.0,2438.666667,19.24941108,22.67294087,11.99647034,0,0,0,1,-99.0,-99.0,-99.0,0
136,45.0,1.5,0.0,1600.0,0.0,0.0,0.0,127.34148,36.3593574,32.0,0.593357638,-3.061150789,-9.541466769,0.620566122,-2.986247575,-9.317036533,-13.50043564,1020.094531,-0.060043777,-0.043803925,0.036092973,0.1795381,0.580134502,-0.362806846,0.706648499,1.50418784,0.309478413,-0.787215745,7.0,-0.026905671,-0.081776166,-0.220676851,-74.0,2438.666667,19.2952937,23.64705837,13.3094115,0,0,0,1,-99.0,-99.0,-99.0,0
